[
{"type":"Feature","properties":{"type":"port","area":"srb-staribanovci","name":"STARI BANOVCI","flag":"SRB"},"geometry":{"type":"Point","coordinates":[20.29740138821813,44.98751660952163]}},
{"type":"Feature","properties":{"type":"port","area":"prk-wonsan","name":"WONSAN","flag":"PRK"},"geometry":{"type":"Point","coordinates":[127.46540946155176,39.15848108493566]}},
{"type":"Feature","properties":{"type":"port","area":"tkm-hazar","name":"HAZAR","flag":"TKM"},"geometry":{"type":"Point","coordinates":[53.08177819180668,39.400252798901406]}},
{"type":"Feature","properties":{"type":"port","area":"grd-saintgeorge's","name":"SAINT GEORGE'S","flag":"GRD"},"geometry":{"type":"Point","coordinates":[-61.76367571839292,12.085848995382296]}},
{"type":"Feature","properties":{"type":"port","area":"aze-baku","name":"BAKU","flag":"AZE"},"geometry":{"type":"Point","coordinates":[49.925946827600086,40.294360631866354]}},
{"type":"Feature","properties":{"type":"port","area":"dza-annaba","name":"ANNABA","flag":"DZA"},"geometry":{"type":"Point","coordinates":[7.801079768529709,36.919147422960656]}},
{"type":"Feature","properties":{"type":"port","area":"twn-keelungcity","name":"KEELUNG CITY","flag":"TWN"},"geometry":{"type":"Point","coordinates":[121.8406,25.26564]}},
{"type":"Feature","properties":{"type":"port","area":"hun-almasfuzito","name":"ALMASFUZITO","flag":"HUN"},"geometry":{"type":"Point","coordinates":[18.234031681888982,47.73947460898745]}},
{"type":"Feature","properties":{"type":"port","area":"zaf-durban","name":"DURBAN","flag":"ZAF"},"geometry":{"type":"Point","coordinates":[31.029554008010038,-29.9269773499566]}},
{"type":"Feature","properties":{"type":"port","area":"gab-m'byaoilterminal","name":"M'BYA OIL TERMINAL","flag":"GAB"},"geometry":{"type":"Point","coordinates":[10.93168019372774,-3.8839113274993653]}},
{"type":"Feature","properties":{"type":"port","area":"per-supe","name":"SUPE","flag":"PER"},"geometry":{"type":"Point","coordinates":[-77.75389597829707,-10.792956021087505]}},
{"type":"Feature","properties":{"type":"port","area":"tto-portofspain","name":"PORT OF SPAIN","flag":"TTO"},"geometry":{"type":"Point","coordinates":[-61.57821872950643,10.616922143261338]}},
{"type":"Feature","properties":{"type":"port","area":"rou-giurgiu","name":"GIURGIU","flag":"ROU"},"geometry":{"type":"Point","coordinates":[24.67940817175983,43.85700812225702]}},
{"type":"Feature","properties":{"type":"port","area":"egy-rasshukhier","name":"RAS SHUKHIER","flag":"EGY"},"geometry":{"type":"Point","coordinates":[33.273774630870214,28.144323851997555]}},
{"type":"Feature","properties":{"type":"port","area":"tha-maptaphut","name":"MAP TA PHUT","flag":"THA"},"geometry":{"type":"Point","coordinates":[101.11653414156379,12.644344340165672]}},
{"type":"Feature","properties":{"type":"port","area":"bgr-ezerovo","name":"EZEROVO","flag":"BGR"},"geometry":{"type":"Point","coordinates":[27.772680327071544,43.19350965614254]}},
{"type":"Feature","properties":{"type":"port","area":"ecu-genovesa","name":"GENOVESA","flag":"ECU"},"geometry":{"type":"Point","coordinates":[-89.94713693136829,0.3132499630646187]}},
{"type":"Feature","properties":{"type":"port","area":"fro-vagur","name":"VAGUR","flag":"FRO"},"geometry":{"type":"Point","coordinates":[-6.808178579438359,61.47194833881431]}},
{"type":"Feature","properties":{"type":"port","area":"prk-nampo","name":"NAMPO","flag":"PRK"},"geometry":{"type":"Point","coordinates":[125.29713698402674,38.70059304804522]}},
{"type":"Feature","properties":{"type":"port","area":"vnm-danang","name":"DA NANG","flag":"VNM"},"geometry":{"type":"Point","coordinates":[108.23728654522355,16.111259860215668]}},
{"type":"Feature","properties":{"type":"port","area":"isl-eskifjordhur","name":"ESKIFJORDHUR","flag":"ISL"},"geometry":{"type":"Point","coordinates":[-14.019251288564774,65.07267267958107]}},
{"type":"Feature","properties":{"type":"port","area":"srb-novisad","name":"NOVI SAD","flag":"SRB"},"geometry":{"type":"Point","coordinates":[20.222133176268972,45.01839907027288]}},
{"type":"Feature","properties":{"type":"port","area":"pry-pilar","name":"PILAR","flag":"PRY"},"geometry":{"type":"Point","coordinates":[-58.32648881745641,-26.870593754998605]}},
{"type":"Feature","properties":{"type":"port","area":"dom-santodomingo","name":"SANTO DOMINGO","flag":"DOM"},"geometry":{"type":"Point","coordinates":[-69.88234012769456,18.457964420717197]}},
{"type":"Feature","properties":{"type":"port","area":"hti-carrefour","name":"CARREFOUR","flag":"HTI"},"geometry":{"type":"Point","coordinates":[-72.40243438684968,18.56952296250689]}},
{"type":"Feature","properties":{"type":"port","area":"tha-laemchabang","name":"LAEM CHABANG","flag":"THA"},"geometry":{"type":"Point","coordinates":[100.85633320482647,13.053089795406255]}},
{"type":"Feature","properties":{"type":"port","area":"prt-estoril","name":"ESTORIL","flag":"PRT"},"geometry":{"type":"Point","coordinates":[-9.404171994676977,38.698911875561215]}},
{"type":"Feature","properties":{"type":"port","area":"ago-portoamboim","name":"PORTO AMBOIM","flag":"AGO"},"geometry":{"type":"Point","coordinates":[13.737465902709658,-10.73907628807421]}},
{"type":"Feature","properties":{"type":"port","area":"dza-portmethanier","name":"PORT METHANIER","flag":"DZA"},"geometry":{"type":"Point","coordinates":[6.937732703027917,36.89599654431984]}},
{"type":"Feature","properties":{"type":"port","area":"bhs-bhs-18","name":"BHS-18","flag":"BHS"},"geometry":{"type":"Point","coordinates":[-76.53495159644447,24.27515890937472]}},
{"type":"Feature","properties":{"type":"port","area":"png-wewakharbor","name":"WEWAK HARBOR","flag":"PNG"},"geometry":{"type":"Point","coordinates":[143.65223155132924,-3.548613424912096]}},
{"type":"Feature","properties":{"type":"port","area":"pan-portobelo","name":"PORTOBELO","flag":"PAN"},"geometry":{"type":"Point","coordinates":[-79.67352767949198,9.553945826270773]}},
{"type":"Feature","properties":{"type":"port","area":"gha-lome","name":"LOME","flag":"GHA"},"geometry":{"type":"Point","coordinates":[1.2154084483628753,6.026663670696248]}},
{"type":"Feature","properties":{"type":"port","area":"fji-suva","name":"SUVA","flag":"FJI"},"geometry":{"type":"Point","coordinates":[178.6834576557115,-17.789208824290917]}},
{"type":"Feature","properties":{"type":"port","area":"isl-budir","name":"BUDIR","flag":"ISL"},"geometry":{"type":"Point","coordinates":[-13.995297903970835,64.92452241828805]}},
{"type":"Feature","properties":{"type":"port","area":"per-lapampillaoilterminal","name":"LA PAMPILLA OIL TERMINAL","flag":"PER"},"geometry":{"type":"Point","coordinates":[-77.15981408307235,-11.921584456727656]}},
{"type":"Feature","properties":{"type":"port","area":"ago-portodoambriz","name":"PORTO DO AMBRIZ","flag":"AGO"},"geometry":{"type":"Point","coordinates":[13.104676504015199,-7.835393435145645]}},
{"type":"Feature","properties":{"type":"port","area":"twn-hua-lienkang","name":"HUA-LIEN KANG","flag":"TWN"},"geometry":{"type":"Point","coordinates":[121.62063023267868,23.965776452234834]}},
{"type":"Feature","properties":{"type":"port","area":"lva-bolderaja","name":"BOLDERAJA","flag":"LVA"},"geometry":{"type":"Point","coordinates":[24.074669500776704,57.036892052899375]}},
{"type":"Feature","properties":{"type":"port","area":"png-lae","name":"LAE","flag":"PNG"},"geometry":{"type":"Point","coordinates":[146.98974859824776,-6.772708610449157]}},
{"type":"Feature","properties":{"type":"port","area":"chl-chl-4","name":"CHL-4","flag":"CHL"},"geometry":{"type":"Point","coordinates":[-68.49052111630358,-54.929736436033245]}},
{"type":"Feature","properties":{"type":"port","area":"ven-tiajuana","name":"TIA JUANA","flag":"VEN"},"geometry":{"type":"Point","coordinates":[-71.36937119864014,10.239844097946195]}},
{"type":"Feature","properties":{"type":"port","area":"isl-bildudalur","name":"BILDUDALUR","flag":"ISL"},"geometry":{"type":"Point","coordinates":[-23.599299413617597,65.68464815586029]}},
{"type":"Feature","properties":{"type":"port","area":"tha-rayongtpiterminal","name":"RAYONG TPI TERMINAL","flag":"THA"},"geometry":{"type":"Point","coordinates":[101.29246312102374,12.635294249589323]}},
{"type":"Feature","properties":{"type":"port","area":"irn-bandar-emahshahr","name":"BANDAR-E MAHSHAHR","flag":"IRN"},"geometry":{"type":"Point","coordinates":[49.180032508060926,30.464259109553378]}},
{"type":"Feature","properties":{"type":"port","area":"aut-weissenkircheninderwachau","name":"WEISSENKIRCHEN IN DER WACHAU","flag":"AUT"},"geometry":{"type":"Point","coordinates":[15.465471051500662,48.38858623228876]}},
{"type":"Feature","properties":{"type":"port","area":"zaf-richardsbay","name":"RICHARDS BAY","flag":"ZAF"},"geometry":{"type":"Point","coordinates":[32.12356886748303,-28.849030172367243]}},
{"type":"Feature","properties":{"type":"port","area":"lby-zawia","name":"ZAWIA","flag":"LBY"},"geometry":{"type":"Point","coordinates":[12.674694458076079,32.82274772661439]}},
{"type":"Feature","properties":{"type":"port","area":"pan-panamacanalanchorage","name":"PANAMA CANAL ANCHORAGE","flag":"PAN"},"geometry":{"type":"Point","coordinates":[-79.58218379206829,8.985066530171123]}},
{"type":"Feature","properties":{"type":"port","area":"bhs-elbowcay","name":"ELBOW CAY","flag":"BHS"},"geometry":{"type":"Point","coordinates":[-76.96871938534147,26.541941496855653]}},
{"type":"Feature","properties":{"type":"port","area":"tha-bangkok","name":"BANGKOK","flag":"THA"},"geometry":{"type":"Point","coordinates":[100.59814882846956,13.497698952132119]}},
{"type":"Feature","properties":{"type":"port","area":"bhs-bhs-10","name":"BHS-10","flag":"BHS"},"geometry":{"type":"Point","coordinates":[-76.98725483274349,26.487231947431464]}},
{"type":"Feature","properties":{"type":"port","area":"ecu-lalibertad","name":"LA LIBERTAD","flag":"ECU"},"geometry":{"type":"Point","coordinates":[-80.91342398822185,-2.1628083337741915]}},
{"type":"Feature","properties":{"type":"port","area":"are-mubarrazisland","name":"MUBARRAZ ISLAND","flag":"ARE"},"geometry":{"type":"Point","coordinates":[53.359846513189886,24.491806106086674]}},
{"type":"Feature","properties":{"type":"port","area":"pri-centralaguirre","name":"CENTRAL AGUIRRE","flag":"PRI"},"geometry":{"type":"Point","coordinates":[-66.23985689057835,17.931645616397972]}},
{"type":"Feature","properties":{"type":"port","area":"hnd-tela","name":"TELA","flag":"HND"},"geometry":{"type":"Point","coordinates":[-87.46094572874952,15.789558410091892]}},
{"type":"Feature","properties":{"type":"port","area":"rou-braila","name":"BRAILA","flag":"ROU"},"geometry":{"type":"Point","coordinates":[28.890424012086207,45.19618989738959]}},
{"type":"Feature","properties":{"type":"port","area":"irn-khorramshahr","name":"KHORRAMSHAHR","flag":"IRN"},"geometry":{"type":"Point","coordinates":[48.42141394305569,30.17481635397408]}},
{"type":"Feature","properties":{"type":"port","area":"tls-dili","name":"DILI","flag":"TLS"},"geometry":{"type":"Point","coordinates":[125.62724177540221,-8.534315834798655]}},
{"type":"Feature","properties":{"type":"port","area":"egy-elturharbor","name":"EL TUR HARBOR","flag":"EGY"},"geometry":{"type":"Point","coordinates":[33.61529948038985,28.224179180953353]}},
{"type":"Feature","properties":{"type":"port","area":"bhs-blackpoint","name":"BLACK POINT","flag":"BHS"},"geometry":{"type":"Point","coordinates":[-76.40537093718835,24.102244980032715]}},
{"type":"Feature","properties":{"type":"port","area":"col-col-20","name":"COL-20","flag":"COL"},"geometry":{"type":"Point","coordinates":[-73.81712564765171,8.639509602358563]}},
{"type":"Feature","properties":{"type":"port","area":"bgr-kavarnaanchorage","name":"KAVARNA ANCHORAGE","flag":"BGR"},"geometry":{"type":"Point","coordinates":[28.390791272708807,43.3711148010001]}},
{"type":"Feature","properties":{"type":"port","area":"sdn-beshayeroilterminal","name":"BESHAYER OIL TERMINAL","flag":"SDN"},"geometry":{"type":"Point","coordinates":[37.32386377671224,19.397540448567526]}},
{"type":"Feature","properties":{"type":"port","area":"bhs-bhs-14","name":"BHS-14","flag":"BHS"},"geometry":{"type":"Point","coordinates":[-77.12195236700204,26.66757521578867]}},
{"type":"Feature","properties":{"type":"port","area":"mdv-male","name":"MALE","flag":"MDV"},"geometry":{"type":"Point","coordinates":[73.48745667482441,4.228890210428252]}},
{"type":"Feature","properties":{"type":"port","area":"slb-ringgicove","name":"RINGGI COVE","flag":"SLB"},"geometry":{"type":"Point","coordinates":[157.1080703571233,-8.1225073341304]}},
{"type":"Feature","properties":{"type":"port","area":"are-are-97","name":"ARE-97","flag":"ARE"},"geometry":{"type":"Point","coordinates":[53.13530420803628,24.55384963144119]}},
{"type":"Feature","properties":{"type":"port","area":"tun-zarzis","name":"ZARZIS","flag":"TUN"},"geometry":{"type":"Point","coordinates":[11.118849742298822,33.483769779127265]}},
{"type":"Feature","properties":{"type":"port","area":"ecu-puertoayora","name":"PUERTO AYORA","flag":"ECU"},"geometry":{"type":"Point","coordinates":[-90.302959402524,-0.7519231858983589]}},
{"type":"Feature","properties":{"type":"port","area":"aze-aze-30","name":"AZE-30","flag":"AZE"},"geometry":{"type":"Point","coordinates":[50.61715727192833,40.319539448940986]}},
{"type":"Feature","properties":{"type":"port","area":"geo-maltakva","name":"MALTAKVA","flag":"GEO"},"geometry":{"type":"Point","coordinates":[41.686075899474915,42.053256735063805]}},
{"type":"Feature","properties":{"type":"port","area":"dza-skikda","name":"SKIKDA","flag":"DZA"},"geometry":{"type":"Point","coordinates":[6.9188018993109495,36.91098712359143]}},
{"type":"Feature","properties":{"type":"port","area":"vnm-catba","name":"CAT BA","flag":"VNM"},"geometry":{"type":"Point","coordinates":[107.04609269620411,20.720019996950533]}},
{"type":"Feature","properties":{"type":"port","area":"lva-daugavgriva","name":"DAUGAVGRIVA","flag":"LVA"},"geometry":{"type":"Point","coordinates":[24.026169611121595,57.053325392835404]}},
{"type":"Feature","properties":{"type":"port","area":"vnm-phumy","name":"PHU MY","flag":"VNM"},"geometry":{"type":"Point","coordinates":[107.0140387839372,10.543595610786236]}},
{"type":"Feature","properties":{"type":"port","area":"prt-pontadelgada","name":"PONTA DELGADA","flag":"PRT"},"geometry":{"type":"Point","coordinates":[-25.65379729625517,37.736062145277394]}},
{"type":"Feature","properties":{"type":"port","area":"hun-vac","name":"VAC","flag":"HUN"},"geometry":{"type":"Point","coordinates":[19.126214610770855,47.76523636503943]}},
{"type":"Feature","properties":{"type":"port","area":"omn-minaalfahl","name":"MINA AL FAHL","flag":"OMN"},"geometry":{"type":"Point","coordinates":[58.5334651322141,23.651636830766282]}},
{"type":"Feature","properties":{"type":"port","area":"col-col-40","name":"COL-40","flag":"COL"},"geometry":{"type":"Point","coordinates":[-73.90242600211079,7.110538484797101]}},
{"type":"Feature","properties":{"type":"port","area":"ltu-butingeoilterminal","name":"BUTINGE OIL TERMINAL","flag":"LTU"},"geometry":{"type":"Point","coordinates":[20.96100376723317,56.04717258639368]}},
{"type":"Feature","properties":{"type":"port","area":"aze-aze-7","name":"AZE-7","flag":"AZE"},"geometry":{"type":"Point","coordinates":[50.386385428178095,39.92197094223111]}},
{"type":"Feature","properties":{"type":"port","area":"vct-portelizabeth","name":"PORT ELIZABETH","flag":"VCT"},"geometry":{"type":"Point","coordinates":[-61.244515001566214,13.00589433501433]}},
{"type":"Feature","properties":{"type":"port","area":"irn-bushehr","name":"BUSHEHR","flag":"IRN"},"geometry":{"type":"Point","coordinates":[50.81795982133316,29.0034264510171]}},
{"type":"Feature","properties":{"type":"port","area":"moz-nacala","name":"NACALA","flag":"MOZ"},"geometry":{"type":"Point","coordinates":[40.679620143566176,-14.452728255515852]}},
{"type":"Feature","properties":{"type":"port","area":"per-casma","name":"CASMA","flag":"PER"},"geometry":{"type":"Point","coordinates":[-78.3861388889,-9.45580555556]}},
{"type":"Feature","properties":{"type":"port","area":"glp-pointeapitre","name":"POINTE A PITRE","flag":"GLP"},"geometry":{"type":"Point","coordinates":[-61.53745406409098,16.21588844854049]}},
{"type":"Feature","properties":{"type":"port","area":"aut-schwechat","name":"SCHWECHAT","flag":"AUT"},"geometry":{"type":"Point","coordinates":[16.496141774180764,48.1601849719568]}},
{"type":"Feature","properties":{"type":"port","area":"imn-portsaintmary","name":"PORT SAINT MARY","flag":"IMN"},"geometry":{"type":"Point","coordinates":[-4.730513444549315,54.07204646130457]}},
{"type":"Feature","properties":{"type":"port","area":"mar-tangermed","name":"TANGER MED","flag":"MAR"},"geometry":{"type":"Point","coordinates":[-5.575874468170847,35.88476812895993]}},
{"type":"Feature","properties":{"type":"port","area":"irn-koohmobarak","name":"KOOH MOBARAK","flag":"IRN"},"geometry":{"type":"Point","coordinates":[57.28035385615075,25.818810227162988]}},
{"type":"Feature","properties":{"type":"port","area":"irn-chabahar","name":"CHABAHAR","flag":"IRN"},"geometry":{"type":"Point","coordinates":[60.609595173422335,25.307772861617245]}},
{"type":"Feature","properties":{"type":"port","area":"egy-egy-78","name":"EGY-78","flag":"EGY"},"geometry":{"type":"Point","coordinates":[32.35347371146147,31.20756160608157]}},
{"type":"Feature","properties":{"type":"port","area":"jam-kingston","name":"KINGSTON","flag":"JAM"},"geometry":{"type":"Point","coordinates":[-76.79519850550417,17.893358657080945]}},
{"type":"Feature","properties":{"type":"port","area":"isr-qiryatyam","name":"QIRYAT YAM","flag":"ISR"},"geometry":{"type":"Point","coordinates":[35.02905518429701,32.85065232410236]}},
{"type":"Feature","properties":{"type":"port","area":"ncl-baieugue","name":"BAIE UGUE","flag":"NCL"},"geometry":{"type":"Point","coordinates":[165.55653049020322,-21.14599317730344]}},
{"type":"Feature","properties":{"type":"port","area":"cuw-bullenbaairefinery","name":"BULLENBAAI REFINERY","flag":"CUW"},"geometry":{"type":"Point","coordinates":[-69.02940504372977,12.192875259101017]}},
{"type":"Feature","properties":{"type":"port","area":"rou-poartaalba","name":"POARTA ALBA","flag":"ROU"},"geometry":{"type":"Point","coordinates":[28.37788489970958,44.22352482507012]}},
{"type":"Feature","properties":{"type":"port","area":"are-are-146","name":"ARE-146","flag":"ARE"},"geometry":{"type":"Point","coordinates":[55.81637994751876,26.03299359292038]}},
{"type":"Feature","properties":{"type":"port","area":"cog-kalamu","name":"KALAMU","flag":"COG"},"geometry":{"type":"Point","coordinates":[12.107421383161142,-5.971383404194661]}},
{"type":"Feature","properties":{"type":"port","area":"dom-dom-16","name":"DOM-16","flag":"DOM"},"geometry":{"type":"Point","coordinates":[-68.38078684500049,18.50215964668805]}},
{"type":"Feature","properties":{"type":"port","area":"bhs-greenturtlecay","name":"GREEN TURTLE CAY","flag":"BHS"},"geometry":{"type":"Point","coordinates":[-77.33621503952504,26.770068444670958]}},
{"type":"Feature","properties":{"type":"port","area":"png-bialla","name":"BIALLA","flag":"PNG"},"geometry":{"type":"Point","coordinates":[151.00014890482188,-5.305597783402868]}},
{"type":"Feature","properties":{"type":"port","area":"gum-apraharbor","name":"APRA HARBOR","flag":"GUM"},"geometry":{"type":"Point","coordinates":[144.64054628330297,13.44945937200203]}},
{"type":"Feature","properties":{"type":"port","area":"svk-bratislava","name":"BRATISLAVA","flag":"SVK"},"geometry":{"type":"Point","coordinates":[17.187725668268644,48.073472206712765]}},
{"type":"Feature","properties":{"type":"port","area":"tun-gabes","name":"GABES","flag":"TUN"},"geometry":{"type":"Point","coordinates":[10.13556610367829,33.93673768405682]}},
{"type":"Feature","properties":{"type":"port","area":"mlt-mallieha","name":"MALLIEHA","flag":"MLT"},"geometry":{"type":"Point","coordinates":[14.363633166166881,35.985512353967565]}},
{"type":"Feature","properties":{"type":"port","area":"egy-suezcanal","name":"SUEZ CANAL","flag":"EGY"},"geometry":{"type":"Point","coordinates":[32.353982242443934,30.42095129980749]}},
{"type":"Feature","properties":{"type":"port","area":"hun-nagymaros","name":"NAGYMAROS","flag":"HUN"},"geometry":{"type":"Point","coordinates":[18.966553502001084,47.793544890436934]}},
{"type":"Feature","properties":{"type":"port","area":"hun-dunafoldvar","name":"DUNAFOLDVAR","flag":"HUN"},"geometry":{"type":"Point","coordinates":[18.950757282158776,46.80492164812064]}},
{"type":"Feature","properties":{"type":"port","area":"arg-zarate","name":"ZARATE","flag":"ARG"},"geometry":{"type":"Point","coordinates":[-59.05387652128381,-34.05513679939443]}},
{"type":"Feature","properties":{"type":"port","area":"cod-matadi","name":"MATADI","flag":"COD"},"geometry":{"type":"Point","coordinates":[12.460005662239055,-6.005084850406737]}},
{"type":"Feature","properties":{"type":"port","area":"tha-phuket","name":"PHUKET","flag":"THA"},"geometry":{"type":"Point","coordinates":[98.4474755372485,7.881730644420726]}},
{"type":"Feature","properties":{"type":"port","area":"bhs-harveyscay","name":"HARVEYS CAY","flag":"BHS"},"geometry":{"type":"Point","coordinates":[-76.48146641544885,24.159678795693548]}},
{"type":"Feature","properties":{"type":"port","area":"lbn-sidon","name":"SIDON","flag":"LBN"},"geometry":{"type":"Point","coordinates":[35.358449359427006,33.58134811526279]}},
{"type":"Feature","properties":{"type":"port","area":"egy-alexandria","name":"ALEXANDRIA","flag":"EGY"},"geometry":{"type":"Point","coordinates":[29.774977515349214,31.182188212901536]}},
{"type":"Feature","properties":{"type":"port","area":"pol-ustka","name":"USTKA","flag":"POL"},"geometry":{"type":"Point","coordinates":[16.85323549542894,54.585152287199534]}},
{"type":"Feature","properties":{"type":"port","area":"irl-rosslare","name":"ROSSLARE","flag":"IRL"},"geometry":{"type":"Point","coordinates":[-6.337527450770891,52.25615369905583]}},
{"type":"Feature","properties":{"type":"port","area":"hti-gonayiv","name":"GONAYIV","flag":"HTI"},"geometry":{"type":"Point","coordinates":[-72.71451624842622,19.449180137350808]}},
{"type":"Feature","properties":{"type":"port","area":"ata-fildesbay","name":"FILDES BAY","flag":"ATA"},"geometry":{"type":"Point","coordinates":[-58.929444404074616,-62.20170619408009]}},
{"type":"Feature","properties":{"type":"port","area":"ven-joseterminal","name":"JOSE TERMINAL","flag":"VEN"},"geometry":{"type":"Point","coordinates":[-64.81889436824045,10.146152534312382]}},
{"type":"Feature","properties":{"type":"port","area":"bgr-novoselo","name":"NOVO SELO","flag":"BGR"},"geometry":{"type":"Point","coordinates":[22.814999708961285,44.15697949596743]}},
{"type":"Feature","properties":{"type":"port","area":"aze-absheronanchorage","name":"ABSHERON ANCHORAGE","flag":"AZE"},"geometry":{"type":"Point","coordinates":[50.2496531803205,40.52014662604947]}},
{"type":"Feature","properties":{"type":"port","area":"chl-puertomontt","name":"PUERTO MONTT","flag":"CHL"},"geometry":{"type":"Point","coordinates":[-73.00732477812737,-41.52946569694448]}},
{"type":"Feature","properties":{"type":"port","area":"ven-puertolacruz","name":"PUERTO LA CRUZ","flag":"VEN"},"geometry":{"type":"Point","coordinates":[-64.67250294167653,10.254454932681835]}},
{"type":"Feature","properties":{"type":"port","area":"aut-waldkirchenamwesen","name":"WALDKIRCHEN AM WESEN","flag":"AUT"},"geometry":{"type":"Point","coordinates":[13.810414681314091,48.45962185627661]}},
{"type":"Feature","properties":{"type":"port","area":"arg-avellaneda","name":"AVELLANEDA","flag":"ARG"},"geometry":{"type":"Point","coordinates":[-58.342572607624895,-34.63987637676754]}},
{"type":"Feature","properties":{"type":"port","area":"eri-eri-3","name":"ERI-3","flag":"ERI"},"geometry":{"type":"Point","coordinates":[39.47660135301053,15.611649976692947]}},
{"type":"Feature","properties":{"type":"port","area":"are-ummalqaywayn","name":"UMM AL QAYWAYN","flag":"ARE"},"geometry":{"type":"Point","coordinates":[55.58199293336829,25.589411545400115]}},
{"type":"Feature","properties":{"type":"port","area":"are-rashidfield","name":"RASHID FIELD","flag":"ARE"},"geometry":{"type":"Point","coordinates":[54.456724754842504,25.372379141646114]}},
{"type":"Feature","properties":{"type":"port","area":"pry-villahayes","name":"VILLA HAYES","flag":"PRY"},"geometry":{"type":"Point","coordinates":[-57.52546000023269,-25.115832886954887]}},
{"type":"Feature","properties":{"type":"port","area":"prt-praia","name":"PRAIA","flag":"PRT"},"geometry":{"type":"Point","coordinates":[-27.968422175863186,39.05241471314412]}},
{"type":"Feature","properties":{"type":"port","area":"fro-skala","name":"SKALA","flag":"FRO"},"geometry":{"type":"Point","coordinates":[-6.784213204236053,62.16224207662248]}},
{"type":"Feature","properties":{"type":"port","area":"are-are-105","name":"ARE-105","flag":"ARE"},"geometry":{"type":"Point","coordinates":[53.212349996801706,24.79302050642706]}},
{"type":"Feature","properties":{"type":"port","area":"prt-vilarealdesantonio","name":"VILA REAL DE S ANTONIO","flag":"PRT"},"geometry":{"type":"Point","coordinates":[-7.412806688286359,37.199787058368926]}},
{"type":"Feature","properties":{"type":"port","area":"rou-pristol","name":"PRISTOL","flag":"ROU"},"geometry":{"type":"Point","coordinates":[22.726534521138277,44.20499303264437]}},
{"type":"Feature","properties":{"type":"port","area":"est-tallinn","name":"TALLINN","flag":"EST"},"geometry":{"type":"Point","coordinates":[24.70020563609144,59.46362607258854]}},
{"type":"Feature","properties":{"type":"port","area":"mar-rabat","name":"RABAT","flag":"MAR"},"geometry":{"type":"Point","coordinates":[-6.821902130233637,34.029399202428905]}},
{"type":"Feature","properties":{"type":"port","area":"chl-calbuco","name":"CALBUCO","flag":"CHL"},"geometry":{"type":"Point","coordinates":[-73.19683536901319,-41.79830130904497]}},
{"type":"Feature","properties":{"type":"port","area":"per-paita","name":"PAITA","flag":"PER"},"geometry":{"type":"Point","coordinates":[-81.10584669746191,-5.056879484879751]}},
{"type":"Feature","properties":{"type":"port","area":"chl-puertochincui","name":"PUERTO CHINCUI","flag":"CHL"},"geometry":{"type":"Point","coordinates":[-73.0176486281184,-41.5187202048031]}},
{"type":"Feature","properties":{"type":"port","area":"are-alrafiq","name":"AL RAFIQ","flag":"ARE"},"geometry":{"type":"Point","coordinates":[54.00025227245202,24.189198317528383]}},
{"type":"Feature","properties":{"type":"port","area":"prt-amora","name":"AMORA","flag":"PRT"},"geometry":{"type":"Point","coordinates":[-9.118874507140022,38.63698716230209]}},
{"type":"Feature","properties":{"type":"port","area":"dza-arzeweldjedid","name":"ARZEW EL DJEDID","flag":"DZA"},"geometry":{"type":"Point","coordinates":[-0.24551939324706892,35.81991627544941]}},
{"type":"Feature","properties":{"type":"port","area":"aut-melk","name":"MELK","flag":"AUT"},"geometry":{"type":"Point","coordinates":[15.329855261074906,48.23301411377097]}},
{"type":"Feature","properties":{"type":"port","area":"dom-puertoplata","name":"PUERTO PLATA","flag":"DOM"},"geometry":{"type":"Point","coordinates":[-70.70841070188071,19.808579055778697]}},
{"type":"Feature","properties":{"type":"port","area":"ury-colonia","name":"COLONIA","flag":"URY"},"geometry":{"type":"Point","coordinates":[-57.85312355989939,-34.46841470539739]}},
{"type":"Feature","properties":{"type":"port","area":"are-ajman","name":"AJMAN","flag":"ARE"},"geometry":{"type":"Point","coordinates":[55.34523309145684,25.536188123382228]}},
{"type":"Feature","properties":{"type":"port","area":"cod-cod-6","name":"COD-6","flag":"COD"},"geometry":{"type":"Point","coordinates":[11.262460796981454,-6.209341033803776]}},
{"type":"Feature","properties":{"type":"port","area":"col-col-45","name":"COL-45","flag":"COL"},"geometry":{"type":"Point","coordinates":[-73.88554189193731,7.069613714539305]}},
{"type":"Feature","properties":{"type":"port","area":"irn-bandar-eanzali","name":"BANDAR-E ANZALI","flag":"IRN"},"geometry":{"type":"Point","coordinates":[49.465179570594294,37.47462385325412]}},
{"type":"Feature","properties":{"type":"port","area":"dza-oran","name":"ORAN","flag":"DZA"},"geometry":{"type":"Point","coordinates":[-0.6255358426124399,35.752388651838885]}},
{"type":"Feature","properties":{"type":"port","area":"bhs-highbornecay","name":"HIGHBORNE CAY","flag":"BHS"},"geometry":{"type":"Point","coordinates":[-76.83174255183783,24.7134856971725]}},
{"type":"Feature","properties":{"type":"port","area":"slv-acajutla","name":"ACAJUTLA","flag":"SLV"},"geometry":{"type":"Point","coordinates":[-89.84052667238717,13.575150632805007]}},
{"type":"Feature","properties":{"type":"port","area":"pak-muhamamadbinqasim","name":"MUHAMAMAD BIN QASIM","flag":"PAK"},"geometry":{"type":"Point","coordinates":[67.32872825034507,24.768480749461407]}},
{"type":"Feature","properties":{"type":"port","area":"egy-suezport","name":"SUEZ PORT","flag":"EGY"},"geometry":{"type":"Point","coordinates":[32.573057546972755,29.947417471166055]}},
{"type":"Feature","properties":{"type":"port","area":"grl-tasiilaq","name":"TASIILAQ","flag":"GRL"},"geometry":{"type":"Point","coordinates":[-37.62537518915354,65.6143950140842]}},
{"type":"Feature","properties":{"type":"port","area":"per-chancay","name":"CHANCAY","flag":"PER"},"geometry":{"type":"Point","coordinates":[-77.2781298431417,-11.578871339400925]}},
{"type":"Feature","properties":{"type":"port","area":"ven-palua","name":"PALUA","flag":"VEN"},"geometry":{"type":"Point","coordinates":[-62.68761584701712,8.364441928364313]}},
{"type":"Feature","properties":{"type":"port","area":"rou-ovidiu","name":"OVIDIU","flag":"ROU"},"geometry":{"type":"Point","coordinates":[28.546200923866337,44.270589543310024]}},
{"type":"Feature","properties":{"type":"port","area":"yem-salif","name":"SALIF","flag":"YEM"},"geometry":{"type":"Point","coordinates":[42.646610536983815,15.317644986223689]}},
{"type":"Feature","properties":{"type":"port","area":"prk-kimch'aek","name":"KIMCH'AEK","flag":"PRK"},"geometry":{"type":"Point","coordinates":[129.20909799627984,40.664250932796165]}},
{"type":"Feature","properties":{"type":"port","area":"per-paramonga","name":"PARAMONGA","flag":"PER"},"geometry":{"type":"Point","coordinates":[-77.84395777068944,-10.68515091609707]}},
{"type":"Feature","properties":{"type":"port","area":"alb-durres","name":"DURRES","flag":"ALB"},"geometry":{"type":"Point","coordinates":[19.453134217937396,41.282003128869015]}},
{"type":"Feature","properties":{"type":"port","area":"hun-paks","name":"PAKS","flag":"HUN"},"geometry":{"type":"Point","coordinates":[18.873562169995353,46.605876788425846]}},
{"type":"Feature","properties":{"type":"port","area":"isr-elat","name":"ELAT","flag":"ISR"},"geometry":{"type":"Point","coordinates":[34.94377454138523,29.53133980988874]}},
{"type":"Feature","properties":{"type":"port","area":"ven-laguaira","name":"LA GUAIRA","flag":"VEN"},"geometry":{"type":"Point","coordinates":[-66.94548793340718,10.620380126815894]}},
{"type":"Feature","properties":{"type":"port","area":"cod-cod-4","name":"COD-4","flag":"COD"},"geometry":{"type":"Point","coordinates":[11.096933204375675,-6.18841115141464]}},
{"type":"Feature","properties":{"type":"port","area":"twn-penghu","name":"PENGHU","flag":"TWN"},"geometry":{"type":"Point","coordinates":[119.580699457197,23.551256794828316]}},
{"type":"Feature","properties":{"type":"port","area":"arg-comodororivadavia","name":"COMODORO RIVADAVIA","flag":"ARG"},"geometry":{"type":"Point","coordinates":[-67.43537434456688,-45.86500693316239]}},
{"type":"Feature","properties":{"type":"port","area":"aut-kirchbergobderdonau","name":"KIRCHBERG OB DER DONAU","flag":"AUT"},"geometry":{"type":"Point","coordinates":[13.918085800306121,48.450712900065724]}},
{"type":"Feature","properties":{"type":"port","area":"chl-chl-36","name":"CHL-36","flag":"CHL"},"geometry":{"type":"Point","coordinates":[-73.31657925638764,-39.84895084600336]}},
{"type":"Feature","properties":{"type":"port","area":"sjm-longyearbyen","name":"LONGYEARBYEN","flag":"SJM"},"geometry":{"type":"Point","coordinates":[14.270347357351582,78.54347062687549]}},
{"type":"Feature","properties":{"type":"port","area":"ecu-ecu-31","name":"ECU-31","flag":"ECU"},"geometry":{"type":"Point","coordinates":[-91.08779776205122,-0.5996434163676071]}},
{"type":"Feature","properties":{"type":"port","area":"irq-nahiyat'atbah","name":"NAHIYAT 'ATBAH","flag":"IRQ"},"geometry":{"type":"Point","coordinates":[48.0244519564625,30.45865501814114]}},
{"type":"Feature","properties":{"type":"port","area":"bhr-bhr-12","name":"BHR-12","flag":"BHR"},"geometry":{"type":"Point","coordinates":[50.78542689385443,25.71932509065548]}},
{"type":"Feature","properties":{"type":"port","area":"chl-chl-106","name":"CHL-106","flag":"CHL"},"geometry":{"type":"Point","coordinates":[-73.41429785582692,-38.45957899058807]}},
{"type":"Feature","properties":{"type":"port","area":"irn-abumusa","name":"ABU MUSA","flag":"IRN"},"geometry":{"type":"Point","coordinates":[55.01011547339849,25.872028267182024]}},
{"type":"Feature","properties":{"type":"port","area":"bgr-burgas","name":"BURGAS","flag":"BGR"},"geometry":{"type":"Point","coordinates":[27.585451697137756,42.493933904663535]}},
{"type":"Feature","properties":{"type":"port","area":"rou-drobeta-turnuseverin","name":"DROBETA-TURNU SEVERIN","flag":"ROU"},"geometry":{"type":"Point","coordinates":[22.663257650544455,44.62079035708479]}},
{"type":"Feature","properties":{"type":"port","area":"nga-seaeagleterminal","name":"SEA EAGLE TERMINAL","flag":"NGA"},"geometry":{"type":"Point","coordinates":[5.3133936003484346,4.807760658497508]}},
{"type":"Feature","properties":{"type":"port","area":"hun-tat","name":"TAT","flag":"HUN"},"geometry":{"type":"Point","coordinates":[18.62105341305413,47.75895909562224]}},
{"type":"Feature","properties":{"type":"port","area":"irn-bandar-eshahidreajie","name":"BANDAR-E SHAHID REAJIE","flag":"IRN"},"geometry":{"type":"Point","coordinates":[56.07168691289805,27.099029684035703]}},
{"type":"Feature","properties":{"type":"port","area":"tto-ansetembladora","name":"ANSE TEMBLADORA","flag":"TTO"},"geometry":{"type":"Point","coordinates":[-61.58520201425255,10.68207602240503]}},
{"type":"Feature","properties":{"type":"port","area":"cub-puertopadre","name":"PUERTO PADRE","flag":"CUB"},"geometry":{"type":"Point","coordinates":[-76.54359982040825,21.226088837999267]}},
{"type":"Feature","properties":{"type":"port","area":"cyp-limassol","name":"LIMASSOL","flag":"CYP"},"geometry":{"type":"Point","coordinates":[33.040206851386614,34.65481600200008]}},
{"type":"Feature","properties":{"type":"port","area":"msr-brades","name":"BRADES","flag":"MSR"},"geometry":{"type":"Point","coordinates":[-62.20969957014149,16.80559337464389]}},
{"type":"Feature","properties":{"type":"port","area":"cpv-saofilipe","name":"SAO FILIPE","flag":"CPV"},"geometry":{"type":"Point","coordinates":[-24.504869693081954,14.915662972388146]}},
{"type":"Feature","properties":{"type":"port","area":"egy-wadifeiran","name":"WADI FEIRAN","flag":"EGY"},"geometry":{"type":"Point","coordinates":[33.1978935025657,28.74836237939982]}},
{"type":"Feature","properties":{"type":"port","area":"bhs-lucaya","name":"LUCAYA","flag":"BHS"},"geometry":{"type":"Point","coordinates":[-78.63956741421744,26.515572469168877]}},
{"type":"Feature","properties":{"type":"port","area":"are-yasmarina","name":"YAS MARINA","flag":"ARE"},"geometry":{"type":"Point","coordinates":[54.60731389012371,24.465492558748494]}},
{"type":"Feature","properties":{"type":"port","area":"twn-jincheng","name":"JINCHENG","flag":"TWN"},"geometry":{"type":"Point","coordinates":[118.29438419413789,24.452107209310046]}},
{"type":"Feature","properties":{"type":"port","area":"vut-vut-6","name":"VUT-6","flag":"VUT"},"geometry":{"type":"Point","coordinates":[167.1744166288845,-15.611888229125448]}},
{"type":"Feature","properties":{"type":"port","area":"pan-sambabonita","name":"SAMBA BONITA","flag":"PAN"},"geometry":{"type":"Point","coordinates":[-79.81919614717864,9.391374111649569]}},
{"type":"Feature","properties":{"type":"port","area":"cri-limon","name":"LIMON","flag":"CRI"},"geometry":{"type":"Point","coordinates":[-82.99083955778016,9.974538125948397]}},
{"type":"Feature","properties":{"type":"port","area":"tun-tunis","name":"TUNIS","flag":"TUN"},"geometry":{"type":"Point","coordinates":[10.3556253737285,36.81333889762331]}},
{"type":"Feature","properties":{"type":"port","area":"bgr-bgr-22","name":"BGR-22","flag":"BGR"},"geometry":{"type":"Point","coordinates":[25.533199046491017,43.64071989001749]}},
{"type":"Feature","properties":{"type":"port","area":"reu-portest","name":"PORT EST","flag":"REU"},"geometry":{"type":"Point","coordinates":[55.31828855183462,-20.93159954718751]}},
{"type":"Feature","properties":{"type":"port","area":"aut-feldkirchenanderdonau","name":"FELDKIRCHEN AN DER DONAU","flag":"AUT"},"geometry":{"type":"Point","coordinates":[14.022178825270746,48.35602027012347]}},
{"type":"Feature","properties":{"type":"port","area":"alb-shengjin","name":"SHENGJIN","flag":"ALB"},"geometry":{"type":"Point","coordinates":[19.588004285523652,41.8130551884111]}},
{"type":"Feature","properties":{"type":"port","area":"dom-aties","name":"ATIES","flag":"DOM"},"geometry":{"type":"Point","coordinates":[-68.84472791187859,18.367701962646642]}},
{"type":"Feature","properties":{"type":"port","area":"per-lacruz","name":"LA CRUZ","flag":"PER"},"geometry":{"type":"Point","coordinates":[-80.59125632880335,-3.625263842603157]}},
{"type":"Feature","properties":{"type":"port","area":"aze-guneshli","name":"GUNESHLI","flag":"AZE"},"geometry":{"type":"Point","coordinates":[50.804583031267526,40.22236517331978]}},
{"type":"Feature","properties":{"type":"port","area":"ago-tombua","name":"TOMBUA","flag":"AGO"},"geometry":{"type":"Point","coordinates":[11.827909717349774,-15.802459188111019]}},
{"type":"Feature","properties":{"type":"port","area":"sen-kaolack","name":"KAOLACK","flag":"SEN"},"geometry":{"type":"Point","coordinates":[-16.080353250521707,14.130717773303036]}},
{"type":"Feature","properties":{"type":"port","area":"twn-twn-1","name":"TWN-1","flag":"TWN"},"geometry":{"type":"Point","coordinates":[121.8406,25.26564]}},
{"type":"Feature","properties":{"type":"port","area":"qat-qat-22","name":"QAT-22","flag":"QAT"},"geometry":{"type":"Point","coordinates":[51.75986733962342,26.48221440849681]}},
{"type":"Feature","properties":{"type":"port","area":"dom-dom-29","name":"DOM-29","flag":"DOM"},"geometry":{"type":"Point","coordinates":[-69.47075181508806,19.08081277445316]}},
{"type":"Feature","properties":{"type":"port","area":"are-mugharragport","name":"MUGHARRAG PORT","flag":"ARE"},"geometry":{"type":"Point","coordinates":[52.567754356935865,24.182824258489845]}},
{"type":"Feature","properties":{"type":"port","area":"qat-raslaffan","name":"RAS LAFFAN","flag":"QAT"},"geometry":{"type":"Point","coordinates":[51.666218020454565,25.91153530159284]}},
{"type":"Feature","properties":{"type":"port","area":"mlt-imgarr","name":"IMGARR","flag":"MLT"},"geometry":{"type":"Point","coordinates":[14.336890040511614,35.90802943197213]}},
{"type":"Feature","properties":{"type":"port","area":"per-sannicolas","name":"SAN NICOLAS","flag":"PER"},"geometry":{"type":"Point","coordinates":[-75.25194475471491,-15.22265577437256]}},
{"type":"Feature","properties":{"type":"port","area":"irl-valentia","name":"VALENTIA","flag":"IRL"},"geometry":{"type":"Point","coordinates":[-10.28350793588039,51.92666399711333]}},
{"type":"Feature","properties":{"type":"port","area":"kwt-minaazzawr","name":"MINA AZ ZAWR","flag":"KWT"},"geometry":{"type":"Point","coordinates":[48.4195863536145,28.71573859738259]}},
{"type":"Feature","properties":{"type":"port","area":"per-bahiadematarani","name":"BAHIA DE MATARANI","flag":"PER"},"geometry":{"type":"Point","coordinates":[-72.13859788290777,-16.977974488260873]}},
{"type":"Feature","properties":{"type":"port","area":"ury-nuevapalmira","name":"NUEVA PALMIRA","flag":"URY"},"geometry":{"type":"Point","coordinates":[-58.42851077742501,-33.80527355084833]}},
{"type":"Feature","properties":{"type":"port","area":"tha-sattahip","name":"SATTAHIP","flag":"THA"},"geometry":{"type":"Point","coordinates":[100.88758904871098,12.602489575894957]}},
{"type":"Feature","properties":{"type":"port","area":"bgr-lom","name":"LOM","flag":"BGR"},"geometry":{"type":"Point","coordinates":[23.23754719540781,43.83783332494717]}},
{"type":"Feature","properties":{"type":"port","area":"col-tolu","name":"TOLU","flag":"COL"},"geometry":{"type":"Point","coordinates":[-75.61808123263714,9.504911526145351]}},
{"type":"Feature","properties":{"type":"port","area":"irn-khark","name":"KHARK","flag":"IRN"},"geometry":{"type":"Point","coordinates":[50.35089719414857,29.220632376685153]}},
{"type":"Feature","properties":{"type":"port","area":"qat-azza'ayin","name":"AZ ZA'AYIN","flag":"QAT"},"geometry":{"type":"Point","coordinates":[51.5052753934097,25.552998573262343]}},
{"type":"Feature","properties":{"type":"port","area":"vnm-quinhon","name":"QUI NHON","flag":"VNM"},"geometry":{"type":"Point","coordinates":[109.2490184302242,13.77518130267387]}},
{"type":"Feature","properties":{"type":"port","area":"are-salmanfield","name":"SALMAN FIELD","flag":"ARE"},"geometry":{"type":"Point","coordinates":[53.149721796249885,25.53136592190814]}},
{"type":"Feature","properties":{"type":"port","area":"cri-puertoherradura","name":"PUERTO HERRADURA","flag":"CRI"},"geometry":{"type":"Point","coordinates":[-84.6643464876303,9.647715375225848]}},
{"type":"Feature","properties":{"type":"port","area":"irl-dingle","name":"DINGLE","flag":"IRL"},"geometry":{"type":"Point","coordinates":[-10.269302891745387,52.12713403375695]}},
{"type":"Feature","properties":{"type":"port","area":"ecu-ecu-33","name":"ECU-33","flag":"ECU"},"geometry":{"type":"Point","coordinates":[-90.306295316437,-0.48162971131299126]}},
{"type":"Feature","properties":{"type":"port","area":"mhl-ebaye","name":"EBAYE","flag":"MHL"},"geometry":{"type":"Point","coordinates":[167.73527677432833,8.779001447902157]}},
{"type":"Feature","properties":{"type":"port","area":"pyf-baietaiohae","name":"BAIE TAIOHAE","flag":"PYF"},"geometry":{"type":"Point","coordinates":[-140.09889530570993,-8.921849034707462]}},
{"type":"Feature","properties":{"type":"port","area":"per-tierracolorada","name":"TIERRA COLORADA","flag":"PER"},"geometry":{"type":"Point","coordinates":[-81.14794098088265,-5.074653092346556]}},
{"type":"Feature","properties":{"type":"port","area":"tca-cockburnharbor","name":"COCKBURN HARBOR","flag":"TCA"},"geometry":{"type":"Point","coordinates":[-71.53871731288015,21.489135625751885]}},
{"type":"Feature","properties":{"type":"port","area":"mdg-iharana","name":"IHARANA","flag":"MDG"},"geometry":{"type":"Point","coordinates":[50.00631974077747,-13.35350891163407]}},
{"type":"Feature","properties":{"type":"port","area":"brb-brb-6","name":"BRB-6","flag":"BRB"},"geometry":{"type":"Point","coordinates":[-59.640931628555876,13.171551423822894]}},
{"type":"Feature","properties":{"type":"port","area":"ecu-ecu-20","name":"ECU-20","flag":"ECU"},"geometry":{"type":"Point","coordinates":[-80.01705344436057,-2.1942781973952488]}},
{"type":"Feature","properties":{"type":"port","area":"srb-pancevo","name":"PANCEVO","flag":"SRB"},"geometry":{"type":"Point","coordinates":[20.63395428201452,44.838493775096595]}},
{"type":"Feature","properties":{"type":"port","area":"moz-maputo","name":"MAPUTO","flag":"MOZ"},"geometry":{"type":"Point","coordinates":[32.64659566670238,-25.965119010622498]}},
{"type":"Feature","properties":{"type":"port","area":"are-mubarrazfield","name":"MUBARRAZ FIELD","flag":"ARE"},"geometry":{"type":"Point","coordinates":[53.702613748771604,24.503868413604295]}},
{"type":"Feature","properties":{"type":"port","area":"vct-barrouallie","name":"BARROUALLIE","flag":"VCT"},"geometry":{"type":"Point","coordinates":[-61.2767777552152,13.24582412009945]}},
{"type":"Feature","properties":{"type":"port","area":"ecu-puertobaquerizomoreno","name":"PUERTO BAQUERIZO MORENO","flag":"ECU"},"geometry":{"type":"Point","coordinates":[-89.61587397014138,-0.8932511957787864]}},
{"type":"Feature","properties":{"type":"port","area":"svn-lucija","name":"LUCIJA","flag":"SVN"},"geometry":{"type":"Point","coordinates":[13.597696782581645,45.503999769582066]}},
{"type":"Feature","properties":{"type":"port","area":"gab-libreville","name":"LIBREVILLE","flag":"GAB"},"geometry":{"type":"Point","coordinates":[9.430975350919708,0.3441622982335528]}},
{"type":"Feature","properties":{"type":"port","area":"are-jebeldhanna","name":"JEBEL DHANNA","flag":"ARE"},"geometry":{"type":"Point","coordinates":[52.65752833596522,24.227508240081114]}},
{"type":"Feature","properties":{"type":"port","area":"pan-colon","name":"COLON","flag":"PAN"},"geometry":{"type":"Point","coordinates":[-79.91711139901868,9.358668588801516]}},
{"type":"Feature","properties":{"type":"port","area":"egy-egy-39","name":"EGY-39","flag":"EGY"},"geometry":{"type":"Point","coordinates":[33.205518869637395,28.565189233491516]}},
{"type":"Feature","properties":{"type":"port","area":"mus-portmathurin","name":"PORT MATHURIN","flag":"MUS"},"geometry":{"type":"Point","coordinates":[63.41986504857421,-19.67916411650459]}},
{"type":"Feature","properties":{"type":"port","area":"tha-sriracha","name":"SRIRACHA","flag":"THA"},"geometry":{"type":"Point","coordinates":[100.77330687167884,13.13083504208703]}},
{"type":"Feature","properties":{"type":"port","area":"ton-neiafu","name":"NEIAFU","flag":"TON"},"geometry":{"type":"Point","coordinates":[-174.04841973303354,-18.689456487712107]}},
{"type":"Feature","properties":{"type":"port","area":"glp-bouillante","name":"BOUILLANTE","flag":"GLP"},"geometry":{"type":"Point","coordinates":[-61.779318495491566,16.16141257488988]}},
{"type":"Feature","properties":{"type":"port","area":"ury-recalada","name":"RECALADA","flag":"URY"},"geometry":{"type":"Point","coordinates":[-55.36262003057868,-35.13842635260055]}},
{"type":"Feature","properties":{"type":"port","area":"egy-suezsouthanchorage","name":"SUEZ SOUTH ANCHORAGE","flag":"EGY"},"geometry":{"type":"Point","coordinates":[32.57880741226239,29.74393771420334]}},
{"type":"Feature","properties":{"type":"port","area":"arg-sanantonioeste","name":"SAN ANTONIO ESTE","flag":"ARG"},"geometry":{"type":"Point","coordinates":[-65.29522479783361,-42.821589295608135]}},
{"type":"Feature","properties":{"type":"port","area":"ago-matadi","name":"MATADI","flag":"AGO"},"geometry":{"type":"Point","coordinates":[13.418206941126614,-5.861771167901577]}},
{"type":"Feature","properties":{"type":"port","area":"pri-sanjuan","name":"SAN JUAN","flag":"PRI"},"geometry":{"type":"Point","coordinates":[-66.11136042954824,18.460114255814876]}},
{"type":"Feature","properties":{"type":"port","area":"bhs-roseisland","name":"ROSE ISLAND","flag":"BHS"},"geometry":{"type":"Point","coordinates":[-77.22658085090343,25.090352882104646]}},
{"type":"Feature","properties":{"type":"port","area":"bes-kralendijk","name":"KRALENDIJK","flag":"BES"},"geometry":{"type":"Point","coordinates":[-68.27960376536149,12.152154734107182]}},
{"type":"Feature","properties":{"type":"port","area":"nga-ogidigbe","name":"OGIDIGBE","flag":"NGA"},"geometry":{"type":"Point","coordinates":[5.0657132809393595,5.468688999169171]}},
{"type":"Feature","properties":{"type":"port","area":"bhs-bhs-4","name":"BHS-4","flag":"BHS"},"geometry":{"type":"Point","coordinates":[-77.51354318131494,25.03626773241739]}},
{"type":"Feature","properties":{"type":"port","area":"rou-basarabi","name":"BASARABI","flag":"ROU"},"geometry":{"type":"Point","coordinates":[28.105830080307054,44.17068717198838]}},
{"type":"Feature","properties":{"type":"port","area":"asm-pagopagoharbor","name":"PAGO PAGO HARBOR","flag":"ASM"},"geometry":{"type":"Point","coordinates":[-170.67808251166744,-14.278368549196877]}},
{"type":"Feature","properties":{"type":"port","area":"kwt-minaalahmadi","name":"MINA AL AHMADI","flag":"KWT"},"geometry":{"type":"Point","coordinates":[48.24717739204823,29.074528175223122]}},
{"type":"Feature","properties":{"type":"port","area":"imn-porterin","name":"PORT ERIN","flag":"IMN"},"geometry":{"type":"Point","coordinates":[-4.767740950864433,54.0860057931656]}},
{"type":"Feature","properties":{"type":"port","area":"aut-ybbsanderdonau","name":"YBBS AN DER DONAU","flag":"AUT"},"geometry":{"type":"Point","coordinates":[15.093491479715864,48.17189941202541]}},
{"type":"Feature","properties":{"type":"port","area":"grl-upernavik","name":"UPERNAVIK","flag":"GRL"},"geometry":{"type":"Point","coordinates":[-56.14716485266141,72.78832690341461]}},
{"type":"Feature","properties":{"type":"port","area":"qat-alwakrah","name":"AL WAKRAH","flag":"QAT"},"geometry":{"type":"Point","coordinates":[51.62504380803402,25.16167177409946]}},
{"type":"Feature","properties":{"type":"port","area":"cod-banana","name":"BANANA","flag":"COD"},"geometry":{"type":"Point","coordinates":[12.418466537694377,-6.013735006882047]}},
{"type":"Feature","properties":{"type":"port","area":"hun-szazhalombatta","name":"SZAZHALOMBATTA","flag":"HUN"},"geometry":{"type":"Point","coordinates":[18.91837672470714,47.29406180302327]}},
{"type":"Feature","properties":{"type":"port","area":"srb-donjimilanovac","name":"DONJI MILANOVAC","flag":"SRB"},"geometry":{"type":"Point","coordinates":[22.15134968199539,44.46761294526519]}},
{"type":"Feature","properties":{"type":"port","area":"chl-chl-44","name":"CHL-44","flag":"CHL"},"geometry":{"type":"Point","coordinates":[-73.7049729849651,-45.29116779153056]}},
{"type":"Feature","properties":{"type":"port","area":"twn-penghucounty","name":"PENGHU COUNTY","flag":"TWN"},"geometry":{"type":"Point","coordinates":[119.62651023410211,23.661077361877126]}},
{"type":"Feature","properties":{"type":"port","area":"nga-twon-brass","name":"TWON-BRASS","flag":"NGA"},"geometry":{"type":"Point","coordinates":[6.239405221228306,4.3062471776035744]}},
{"type":"Feature","properties":{"type":"port","area":"chl-puertocaldera","name":"PUERTO CALDERA","flag":"CHL"},"geometry":{"type":"Point","coordinates":[-70.83283762118265,-27.049055952378726]}},
{"type":"Feature","properties":{"type":"port","area":"mdv-hulhumale","name":"HULHUMALE","flag":"MDV"},"geometry":{"type":"Point","coordinates":[73.53130615175675,4.225259173363546]}},
{"type":"Feature","properties":{"type":"port","area":"aut-bisamberg","name":"BISAMBERG","flag":"AUT"},"geometry":{"type":"Point","coordinates":[16.333206022880166,48.327201675442055]}},
{"type":"Feature","properties":{"type":"port","area":"blz-blz-4","name":"BLZ-4","flag":"BLZ"},"geometry":{"type":"Point","coordinates":[-88.38385149860615,16.4609438054308]}},
{"type":"Feature","properties":{"type":"port","area":"prt-sagres","name":"SAGRES","flag":"PRT"},"geometry":{"type":"Point","coordinates":[-8.946836050558252,37.01286388664412]}},
{"type":"Feature","properties":{"type":"port","area":"civ-abidjan","name":"ABIDJAN","flag":"CIV"},"geometry":{"type":"Point","coordinates":[-4.047971424602715,5.214081565112038]}},
{"type":"Feature","properties":{"type":"port","area":"ecu-puntaarenas","name":"PUNTA ARENAS","flag":"ECU"},"geometry":{"type":"Point","coordinates":[-80.14606462572651,-3.090510466671807]}},
{"type":"Feature","properties":{"type":"port","area":"irn-hengamfield","name":"HENGAM FIELD","flag":"IRN"},"geometry":{"type":"Point","coordinates":[55.97242325597553,26.395012322848817]}},
{"type":"Feature","properties":{"type":"port","area":"kwt-dohaharbor","name":"DOHA HARBOR","flag":"KWT"},"geometry":{"type":"Point","coordinates":[47.797422435874864,29.38356685164022]}},
{"type":"Feature","properties":{"type":"port","area":"lka-galleharbor","name":"GALLE HARBOR","flag":"LKA"},"geometry":{"type":"Point","coordinates":[80.2344118677722,6.024125109786229]}},
{"type":"Feature","properties":{"type":"port","area":"aze-aze-29","name":"AZE-29","flag":"AZE"},"geometry":{"type":"Point","coordinates":[50.83773569751778,40.250888815164345]}},
{"type":"Feature","properties":{"type":"port","area":"bgd-chittagong","name":"CHITTAGONG","flag":"BGD"},"geometry":{"type":"Point","coordinates":[91.79255328816024,22.172965814492095]}},
{"type":"Feature","properties":{"type":"port","area":"chl-sanjose","name":"SAN JOSE","flag":"CHL"},"geometry":{"type":"Point","coordinates":[-73.20107829849418,-41.798493188222785]}},
{"type":"Feature","properties":{"type":"port","area":"arg-barranqueras","name":"BARRANQUERAS","flag":"ARG"},"geometry":{"type":"Point","coordinates":[-58.940072540370906,-27.655632256473087]}},
{"type":"Feature","properties":{"type":"port","area":"tha-patong","name":"PATONG","flag":"THA"},"geometry":{"type":"Point","coordinates":[98.27903302375738,7.898504794280252]}},
{"type":"Feature","properties":{"type":"port","area":"pol-gdynia","name":"GDYNIA","flag":"POL"},"geometry":{"type":"Point","coordinates":[18.657587357371632,54.52436389381537]}},
{"type":"Feature","properties":{"type":"port","area":"per-zorritos","name":"ZORRITOS","flag":"PER"},"geometry":{"type":"Point","coordinates":[-80.6541388889,-3.66780555556]}},
{"type":"Feature","properties":{"type":"port","area":"are-mubarakfieid","name":"MUBARAK FIEID","flag":"ARE"},"geometry":{"type":"Point","coordinates":[55.18446055195908,25.840410534972463]}},
{"type":"Feature","properties":{"type":"port","area":"chl-iquique","name":"IQUIQUE","flag":"CHL"},"geometry":{"type":"Point","coordinates":[-70.17849304435043,-20.499750617090662]}},
{"type":"Feature","properties":{"type":"port","area":"fro-tvoroyri","name":"TVOROYRI","flag":"FRO"},"geometry":{"type":"Point","coordinates":[-6.814665851861712,61.55318271513238]}},
{"type":"Feature","properties":{"type":"port","area":"vct-petitsaintvincent","name":"PETIT SAINT VINCENT","flag":"VCT"},"geometry":{"type":"Point","coordinates":[-61.39022463015945,12.530145660096405]}},
{"type":"Feature","properties":{"type":"port","area":"ecu-puertovillamil","name":"PUERTO VILLAMIL","flag":"ECU"},"geometry":{"type":"Point","coordinates":[-90.96350155161858,-0.9650995375848173]}},
{"type":"Feature","properties":{"type":"port","area":"gnq-bata","name":"BATA","flag":"GNQ"},"geometry":{"type":"Point","coordinates":[9.715034285334456,1.83470777680226]}},
{"type":"Feature","properties":{"type":"port","area":"bhs-bhs-73","name":"BHS-73","flag":"BHS"},"geometry":{"type":"Point","coordinates":[-74.96061514741734,23.101566848711517]}},
{"type":"Feature","properties":{"type":"port","area":"irl-bantry","name":"BANTRY","flag":"IRL"},"geometry":{"type":"Point","coordinates":[-9.46220217913506,51.681021562355085]}},
{"type":"Feature","properties":{"type":"port","area":"cri-cri-17","name":"CRI-17","flag":"CRI"},"geometry":{"type":"Point","coordinates":[-84.89032410120647,9.776240347783638]}},
{"type":"Feature","properties":{"type":"port","area":"cck-cocos","name":"COCOS","flag":"CCK"},"geometry":{"type":"Point","coordinates":[96.88127909204036,-12.092108921213638]}},
{"type":"Feature","properties":{"type":"port","area":"prt-vianadocastelo","name":"VIANA DO CASTELO","flag":"PRT"},"geometry":{"type":"Point","coordinates":[-8.860946375412572,41.68080268851701]}},
{"type":"Feature","properties":{"type":"port","area":"egy-maaddiya","name":"MAADDIYA","flag":"EGY"},"geometry":{"type":"Point","coordinates":[30.155521924865457,31.270874025822053]}},
{"type":"Feature","properties":{"type":"port","area":"cmr-cmr-4","name":"CMR-4","flag":"CMR"},"geometry":{"type":"Point","coordinates":[8.481763090054862,4.143811149781444]}},
{"type":"Feature","properties":{"type":"port","area":"moz-pemba","name":"PEMBA","flag":"MOZ"},"geometry":{"type":"Point","coordinates":[40.48277708344639,-12.969378876931716]}},
{"type":"Feature","properties":{"type":"port","area":"chl-chonchi","name":"CHONCHI","flag":"CHL"},"geometry":{"type":"Point","coordinates":[-73.76443729802709,-42.61927517703659]}},
{"type":"Feature","properties":{"type":"port","area":"cok-cok-1","name":"COK-1","flag":"COK"},"geometry":{"type":"Point","coordinates":[-163.1916772224521,-18.046076485288864]}},
{"type":"Feature","properties":{"type":"port","area":"hun-harta","name":"HARTA","flag":"HUN"},"geometry":{"type":"Point","coordinates":[19.010503380665536,46.70451603941833]}},
{"type":"Feature","properties":{"type":"port","area":"brn-kualabelait","name":"KUALA BELAIT","flag":"BRN"},"geometry":{"type":"Point","coordinates":[114.20080229280622,4.61653501976447]}},
{"type":"Feature","properties":{"type":"port","area":"hnd-puertodehencan","name":"PUERTO DE HENCAN","flag":"HND"},"geometry":{"type":"Point","coordinates":[-87.42359057411356,13.40149998895414]}},
{"type":"Feature","properties":{"type":"port","area":"egy-egy-65","name":"EGY-65","flag":"EGY"},"geometry":{"type":"Point","coordinates":[33.110880825298494,28.619248359965155]}},
{"type":"Feature","properties":{"type":"port","area":"aut-sanktaegidi","name":"SANKT AEGIDI","flag":"AUT"},"geometry":{"type":"Point","coordinates":[13.738896954576177,48.498416034595586]}},
{"type":"Feature","properties":{"type":"port","area":"cog-pointenoire","name":"POINTE NOIRE","flag":"COG"},"geometry":{"type":"Point","coordinates":[11.703478885937319,-4.949988295259487]}},
{"type":"Feature","properties":{"type":"port","area":"cub-guayabal","name":"GUAYABAL","flag":"CUB"},"geometry":{"type":"Point","coordinates":[-77.61892375453286,20.683446434106536]}},
{"type":"Feature","properties":{"type":"port","area":"bhs-crabcay","name":"CRAB CAY","flag":"BHS"},"geometry":{"type":"Point","coordinates":[-77.36744160265057,26.81902903788422]}},
{"type":"Feature","properties":{"type":"port","area":"kir-englishharbor","name":"ENGLISH HARBOR","flag":"KIR"},"geometry":{"type":"Point","coordinates":[-159.35821978847392,3.859056973458453]}},
{"type":"Feature","properties":{"type":"port","area":"isr-acre","name":"ACRE","flag":"ISR"},"geometry":{"type":"Point","coordinates":[35.07019663637189,32.91909609387157]}},
{"type":"Feature","properties":{"type":"port","area":"bes-gotooilterminal","name":"GOTO OIL TERMINAL","flag":"BES"},"geometry":{"type":"Point","coordinates":[-68.38394400320252,12.219351784449746]}},
{"type":"Feature","properties":{"type":"port","area":"tto-scarborough","name":"SCARBOROUGH","flag":"TTO"},"geometry":{"type":"Point","coordinates":[-60.73611875609263,11.179456861886242]}},
{"type":"Feature","properties":{"type":"port","area":"mne-kotor","name":"KOTOR","flag":"MNE"},"geometry":{"type":"Point","coordinates":[18.829327880918832,42.34204893278046]}},
{"type":"Feature","properties":{"type":"port","area":"pri-bahiadefajardo","name":"BAHIA DE FAJARDO","flag":"PRI"},"geometry":{"type":"Point","coordinates":[-65.6244320264973,18.336399244186534]}},
{"type":"Feature","properties":{"type":"port","area":"slv-launion","name":"LA UNION","flag":"SLV"},"geometry":{"type":"Point","coordinates":[-87.81474140089384,13.32954183465132]}},
{"type":"Feature","properties":{"type":"port","area":"isl-neskaupstadur","name":"NESKAUPSTADUR","flag":"ISL"},"geometry":{"type":"Point","coordinates":[-13.694965066650312,65.14534283352543]}},
{"type":"Feature","properties":{"type":"port","area":"tgo-lome","name":"LOME","flag":"TGO"},"geometry":{"type":"Point","coordinates":[1.2650835446860338,6.063522199974148]}},
{"type":"Feature","properties":{"type":"port","area":"cub-santiagodecuba","name":"SANTIAGO DE CUBA","flag":"CUB"},"geometry":{"type":"Point","coordinates":[-75.8651900964936,19.999537630824555]}},
{"type":"Feature","properties":{"type":"port","area":"ven-ciudadojeda","name":"CIUDAD OJEDA","flag":"VEN"},"geometry":{"type":"Point","coordinates":[-71.32991631528502,10.192400054943436]}},
{"type":"Feature","properties":{"type":"port","area":"are-ummalquwain","name":"UMM AL QUWAIN","flag":"ARE"},"geometry":{"type":"Point","coordinates":[55.560228826851215,25.54403562653039]}},
{"type":"Feature","properties":{"type":"port","area":"ury-puertosauce","name":"PUERTO SAUCE","flag":"URY"},"geometry":{"type":"Point","coordinates":[-57.44485225049294,-34.440317161387206]}},
{"type":"Feature","properties":{"type":"port","area":"vut-vut-10","name":"VUT-10","flag":"VUT"},"geometry":{"type":"Point","coordinates":[168.2431580413209,-17.604635334279756]}},
{"type":"Feature","properties":{"type":"port","area":"per-per-51","name":"PER-51","flag":"PER"},"geometry":{"type":"Point","coordinates":[-80.38955556,-3.4995]}},
{"type":"Feature","properties":{"type":"port","area":"hun-budapestii.kerulet","name":"BUDAPEST II. KERULET","flag":"HUN"},"geometry":{"type":"Point","coordinates":[19.04858882762116,47.517959259549755]}},
{"type":"Feature","properties":{"type":"port","area":"pyf-atuona","name":"ATUONA","flag":"PYF"},"geometry":{"type":"Point","coordinates":[-139.0322688482136,-9.806261517259497]}},
{"type":"Feature","properties":{"type":"port","area":"guy-newamsterdam","name":"NEW AMSTERDAM","flag":"GUY"},"geometry":{"type":"Point","coordinates":[-57.52087056216266,6.268756567979843]}},
{"type":"Feature","properties":{"type":"port","area":"vir-cruzbay","name":"CRUZ BAY","flag":"VIR"},"geometry":{"type":"Point","coordinates":[-64.78140939862998,18.341057326198378]}},
{"type":"Feature","properties":{"type":"port","area":"syr-alladhiqiyah","name":"AL LADHIQIYAH","flag":"SYR"},"geometry":{"type":"Point","coordinates":[35.748580030720376,35.5270039864068]}},
{"type":"Feature","properties":{"type":"port","area":"lva-jaunciems","name":"JAUNCIEMS","flag":"LVA"},"geometry":{"type":"Point","coordinates":[24.128155349394103,57.028866346702245]}},
{"type":"Feature","properties":{"type":"port","area":"irl-cork","name":"CORK","flag":"IRL"},"geometry":{"type":"Point","coordinates":[-8.360506515284511,51.87091080523236]}},
{"type":"Feature","properties":{"type":"port","area":"lca-marigotbay","name":"MARIGOT BAY","flag":"LCA"},"geometry":{"type":"Point","coordinates":[-61.02576549598598,13.975046294020025]}},
{"type":"Feature","properties":{"type":"port","area":"arg-puertomadryn","name":"PUERTO MADRYN","flag":"ARG"},"geometry":{"type":"Point","coordinates":[-64.9956936138345,-42.74794646021946]}},
{"type":"Feature","properties":{"type":"port","area":"cmr-cmr-21","name":"CMR-21","flag":"CMR"},"geometry":{"type":"Point","coordinates":[9.803899054311488,2.927463573887758]}},
{"type":"Feature","properties":{"type":"port","area":"chl-chl-71","name":"CHL-71","flag":"CHL"},"geometry":{"type":"Point","coordinates":[-74.23805154835426,-44.21899106429349]}},
{"type":"Feature","properties":{"type":"port","area":"ago-namibe","name":"NAMIBE","flag":"AGO"},"geometry":{"type":"Point","coordinates":[12.133218377737622,-15.164729923887743]}},
{"type":"Feature","properties":{"type":"port","area":"ala-krokarna","name":"KROKARNA","flag":"ALA"},"geometry":{"type":"Point","coordinates":[20.766658494458525,60.297117316781915]}},
{"type":"Feature","properties":{"type":"port","area":"isl-isl-57","name":"ISL-57","flag":"ISL"},"geometry":{"type":"Point","coordinates":[-22.061275221175173,64.06727102069252]}},
{"type":"Feature","properties":{"type":"port","area":"vut-isangel","name":"ISANGEL","flag":"VUT"},"geometry":{"type":"Point","coordinates":[169.26461555792343,-19.53414311252373]}},
{"type":"Feature","properties":{"type":"port","area":"aut-tulln","name":"TULLN","flag":"AUT"},"geometry":{"type":"Point","coordinates":[16.046058030797656,48.334038202866836]}},
{"type":"Feature","properties":{"type":"port","area":"zaf-capetown","name":"CAPETOWN","flag":"ZAF"},"geometry":{"type":"Point","coordinates":[18.385999797212463,-33.91899988879925]}},
{"type":"Feature","properties":{"type":"port","area":"tha-samutsakhon","name":"SAMUT SAKHON","flag":"THA"},"geometry":{"type":"Point","coordinates":[100.27074923044027,13.517773579770619]}},
{"type":"Feature","properties":{"type":"port","area":"irn-bandar-eparsterminal","name":"BANDAR-E PARS TERMINAL","flag":"IRN"},"geometry":{"type":"Point","coordinates":[52.543839447201705,27.52353672785963]}},
{"type":"Feature","properties":{"type":"port","area":"twn-donggang","name":"DONGGANG","flag":"TWN"},"geometry":{"type":"Point","coordinates":[120.44401281490215,22.469090917365516]}},
{"type":"Feature","properties":{"type":"port","area":"ala-sottunga","name":"SOTTUNGA","flag":"ALA"},"geometry":{"type":"Point","coordinates":[20.681335076433733,60.109812316749895]}},
{"type":"Feature","properties":{"type":"port","area":"omn-salalah","name":"SALALAH","flag":"OMN"},"geometry":{"type":"Point","coordinates":[54.073495222117465,16.922327153505115]}},
{"type":"Feature","properties":{"type":"port","area":"sxm-lowerprince'squarter","name":"LOWER PRINCE'S QUARTER","flag":"SXM"},"geometry":{"type":"Point","coordinates":[-63.01616378983106,18.054231846861782]}},
{"type":"Feature","properties":{"type":"port","area":"grl-maniitsoq","name":"MANIITSOQ","flag":"GRL"},"geometry":{"type":"Point","coordinates":[-52.898454922898274,65.41200635371753]}},
{"type":"Feature","properties":{"type":"port","area":"col-tumaco","name":"TUMACO","flag":"COL"},"geometry":{"type":"Point","coordinates":[-78.73131033781813,1.818197046209087]}},
{"type":"Feature","properties":{"type":"port","area":"srb-belgrade","name":"BELGRADE","flag":"SRB"},"geometry":{"type":"Point","coordinates":[20.447654745741,44.80829626415123]}},
{"type":"Feature","properties":{"type":"port","area":"geo-batumi","name":"BATUMI","flag":"GEO"},"geometry":{"type":"Point","coordinates":[41.66132350254756,41.679222272063804]}},
{"type":"Feature","properties":{"type":"port","area":"aut-scharndorf","name":"SCHARNDORF","flag":"AUT"},"geometry":{"type":"Point","coordinates":[16.80405264161398,48.11527922564163]}},
{"type":"Feature","properties":{"type":"port","area":"chl-tenaun","name":"TENAUN","flag":"CHL"},"geometry":{"type":"Point","coordinates":[-73.37371563249823,-42.33789759721807]}},
{"type":"Feature","properties":{"type":"port","area":"ven-puertocumarebo","name":"PUERTO CUMAREBO","flag":"VEN"},"geometry":{"type":"Point","coordinates":[-69.33196388559195,11.513226973676444]}},
{"type":"Feature","properties":{"type":"port","area":"bgr-silistra","name":"SILISTRA","flag":"BGR"},"geometry":{"type":"Point","coordinates":[27.224398036037293,44.12092202868946]}},
{"type":"Feature","properties":{"type":"port","area":"svk-komarno","name":"KOMARNO","flag":"SVK"},"geometry":{"type":"Point","coordinates":[18.06789279665316,47.75759239529008]}},
{"type":"Feature","properties":{"type":"port","area":"fro-torshavn","name":"TORSHAVN","flag":"FRO"},"geometry":{"type":"Point","coordinates":[-6.863488639854789,62.091858688188715]}},
{"type":"Feature","properties":{"type":"port","area":"cub-moa","name":"MOA","flag":"CUB"},"geometry":{"type":"Point","coordinates":[-74.89580082976478,20.666630385188924]}},
{"type":"Feature","properties":{"type":"port","area":"ecu-ecu-32","name":"ECU-32","flag":"ECU"},"geometry":{"type":"Point","coordinates":[-90.28594942726994,-0.40579338642613444]}},
{"type":"Feature","properties":{"type":"port","area":"nga-quaiboeoilterminal","name":"QUA IBOE OIL TERMINAL","flag":"NGA"},"geometry":{"type":"Point","coordinates":[8.05202176474496,4.223649581800765]}},
{"type":"Feature","properties":{"type":"port","area":"kaz-bautino","name":"BAUTINO","flag":"KAZ"},"geometry":{"type":"Point","coordinates":[50.26952567965611,44.56147813326187]}},
{"type":"Feature","properties":{"type":"port","area":"cyp-akrotiri","name":"AKROTIRI","flag":"CYP"},"geometry":{"type":"Point","coordinates":[33.03447872200783,34.58103800649438]}},
{"type":"Feature","properties":{"type":"port","area":"per-chorrillos","name":"CHORRILLOS","flag":"PER"},"geometry":{"type":"Point","coordinates":[-77.02681992390312,-12.155041645649373]}},
{"type":"Feature","properties":{"type":"port","area":"chl-castro","name":"CASTRO","flag":"CHL"},"geometry":{"type":"Point","coordinates":[-73.75763514584257,-42.4801589941425]}},
{"type":"Feature","properties":{"type":"port","area":"lca-vieuxfort","name":"VIEUX FORT","flag":"LCA"},"geometry":{"type":"Point","coordinates":[-60.957301275038525,13.719458366850747]}},
{"type":"Feature","properties":{"type":"port","area":"irn-bandarkhomeyni","name":"BANDAR KHOMEYNI","flag":"IRN"},"geometry":{"type":"Point","coordinates":[49.07259088239075,30.425489163620306]}},
{"type":"Feature","properties":{"type":"port","area":"rou-rou-5","name":"ROU-5","flag":"ROU"},"geometry":{"type":"Point","coordinates":[22.059491689670907,44.53944393126763]}},
{"type":"Feature","properties":{"type":"port","area":"tuv-funafuti","name":"FUNAFUTI","flag":"TUV"},"geometry":{"type":"Point","coordinates":[179.17732751597535,-8.502793651557905]}},
{"type":"Feature","properties":{"type":"port","area":"ven-guanta","name":"GUANTA","flag":"VEN"},"geometry":{"type":"Point","coordinates":[-64.65374657178808,10.267523635396522]}},
{"type":"Feature","properties":{"type":"port","area":"vgb-roadtown","name":"ROAD TOWN","flag":"VGB"},"geometry":{"type":"Point","coordinates":[-64.65099244551772,18.445587742313318]}},
{"type":"Feature","properties":{"type":"port","area":"hti-portauprince","name":"PORT AU PRINCE","flag":"HTI"},"geometry":{"type":"Point","coordinates":[-72.35847917103153,18.561921812694838]}},
{"type":"Feature","properties":{"type":"port","area":"rou-sulina","name":"SULINA","flag":"ROU"},"geometry":{"type":"Point","coordinates":[29.740648422285645,45.14902860815624]}},
{"type":"Feature","properties":{"type":"port","area":"cub-guantanamo","name":"GUANTANAMO","flag":"CUB"},"geometry":{"type":"Point","coordinates":[-75.15157453668725,19.9159644572778]}},
{"type":"Feature","properties":{"type":"port","area":"pri-islapalominos","name":"ISLA PALOMINOS","flag":"PRI"},"geometry":{"type":"Point","coordinates":[-65.57314641726589,18.348237629317733]}},
{"type":"Feature","properties":{"type":"port","area":"yem-almukha","name":"AL MUKHA","flag":"YEM"},"geometry":{"type":"Point","coordinates":[43.22982144921593,13.313682627383356]}},
{"type":"Feature","properties":{"type":"port","area":"guf-kourou","name":"KOUROU","flag":"GUF"},"geometry":{"type":"Point","coordinates":[-52.66838486351809,5.151294829854066]}},
{"type":"Feature","properties":{"type":"port","area":"bhs-bhs-74","name":"BHS-74","flag":"BHS"},"geometry":{"type":"Point","coordinates":[-78.8463211317455,26.54331633004742]}},
{"type":"Feature","properties":{"type":"port","area":"col-col-18","name":"COL-18","flag":"COL"},"geometry":{"type":"Point","coordinates":[-74.73895855117432,10.88354398398823]}},
{"type":"Feature","properties":{"type":"port","area":"vnm-hongai","name":"HON GAI","flag":"VNM"},"geometry":{"type":"Point","coordinates":[107.08100618955903,20.906754868745438]}},
{"type":"Feature","properties":{"type":"port","area":"moz-quelimane","name":"QUELIMANE","flag":"MOZ"},"geometry":{"type":"Point","coordinates":[36.880135672185084,-17.880627046400107]}},
{"type":"Feature","properties":{"type":"port","area":"are-are-190","name":"ARE-190","flag":"ARE"},"geometry":{"type":"Point","coordinates":[54.10128088225127,24.261890834334917]}},
{"type":"Feature","properties":{"type":"port","area":"isl-holmavik","name":"HOLMAVIK","flag":"ISL"},"geometry":{"type":"Point","coordinates":[-21.665724484776206,65.70520339603888]}},
{"type":"Feature","properties":{"type":"port","area":"som-berbera","name":"BERBERA","flag":"SOM"},"geometry":{"type":"Point","coordinates":[44.97641867477378,10.439657678988286]}},
{"type":"Feature","properties":{"type":"port","area":"ecu-ecu-43","name":"ECU-43","flag":"ECU"},"geometry":{"type":"Point","coordinates":[-91.43975462264339,-0.2663807317342925]}},
{"type":"Feature","properties":{"type":"port","area":"tun-sousse","name":"SOUSSE","flag":"TUN"},"geometry":{"type":"Point","coordinates":[10.683026329263067,35.838360683727146]}},
{"type":"Feature","properties":{"type":"port","area":"cyp-cyp-11","name":"CYP-11","flag":"CYP"},"geometry":{"type":"Point","coordinates":[33.16634119579029,34.70932221182224]}},
{"type":"Feature","properties":{"type":"port","area":"pry-puertodeasuncion","name":"PUERTO DE ASUNCION","flag":"PRY"},"geometry":{"type":"Point","coordinates":[-57.65640965932621,-25.272650141359694]}},
{"type":"Feature","properties":{"type":"port","area":"glp-basseterre","name":"BASSE TERRE","flag":"GLP"},"geometry":{"type":"Point","coordinates":[-61.723614649556744,15.987628712717648]}},
{"type":"Feature","properties":{"type":"port","area":"fsm-tafunsak","name":"TAFUNSAK","flag":"FSM"},"geometry":{"type":"Point","coordinates":[162.9570118394211,5.350564511754775]}},
{"type":"Feature","properties":{"type":"port","area":"arg-buenosaires","name":"BUENOS AIRES","flag":"ARG"},"geometry":{"type":"Point","coordinates":[-58.33910024428112,-34.61274182996924]}},
{"type":"Feature","properties":{"type":"port","area":"png-portmoresby","name":"PORT MORESBY","flag":"PNG"},"geometry":{"type":"Point","coordinates":[147.13977739464937,-9.499048125128212]}},
{"type":"Feature","properties":{"type":"port","area":"prt-praiadevitoria","name":"PRAIA DE VITORIA","flag":"PRT"},"geometry":{"type":"Point","coordinates":[-27.042629871458526,38.71877809723539]}},
{"type":"Feature","properties":{"type":"port","area":"irl-crosshaven","name":"CROSSHAVEN","flag":"IRL"},"geometry":{"type":"Point","coordinates":[-8.270305132327726,51.77827340121771]}},
{"type":"Feature","properties":{"type":"port","area":"vir-christiansted","name":"CHRISTIANSTED","flag":"VIR"},"geometry":{"type":"Point","coordinates":[-64.69853785622371,17.751553040286623]}},
{"type":"Feature","properties":{"type":"port","area":"chl-chl-85","name":"CHL-85","flag":"CHL"},"geometry":{"type":"Point","coordinates":[-70.43312400586076,-53.30391889545298]}},
{"type":"Feature","properties":{"type":"port","area":"are-are-178","name":"ARE-178","flag":"ARE"},"geometry":{"type":"Point","coordinates":[53.97298214440954,24.171868284373836]}},
{"type":"Feature","properties":{"type":"port","area":"bhs-governor'sharbour","name":"GOVERNOR'S HARBOUR","flag":"BHS"},"geometry":{"type":"Point","coordinates":[-76.24922579791956,25.1955261247415]}},
{"type":"Feature","properties":{"type":"port","area":"kna-basseterre","name":"BASSETERRE","flag":"KNA"},"geometry":{"type":"Point","coordinates":[-62.72105684756179,17.28247814485271]}},
{"type":"Feature","properties":{"type":"port","area":"bhr-diyaralmuharraq","name":"DIYAR AL MUHARRAQ","flag":"BHR"},"geometry":{"type":"Point","coordinates":[50.65874630050568,26.285923044129444]}},
{"type":"Feature","properties":{"type":"port","area":"jam-portantonio","name":"PORT ANTONIO","flag":"JAM"},"geometry":{"type":"Point","coordinates":[-76.44846186464935,18.180671974430584]}},
{"type":"Feature","properties":{"type":"port","area":"srb-novislankamen","name":"NOVI SLANKAMEN","flag":"SRB"},"geometry":{"type":"Point","coordinates":[20.27835187532111,45.12808163612049]}},
{"type":"Feature","properties":{"type":"port","area":"fro-eystur","name":"EYSTUR","flag":"FRO"},"geometry":{"type":"Point","coordinates":[-6.707101761931156,62.212100983711416]}},
{"type":"Feature","properties":{"type":"port","area":"col-puertonuevo","name":"PUERTO NUEVO","flag":"COL"},"geometry":{"type":"Point","coordinates":[-74.24876209776852,11.110262197537786]}},
{"type":"Feature","properties":{"type":"port","area":"chl-coquimbo","name":"COQUIMBO","flag":"CHL"},"geometry":{"type":"Point","coordinates":[-71.31725996852605,-29.93841697452191]}},
{"type":"Feature","properties":{"type":"port","area":"cyp-paphos","name":"PAPHOS","flag":"CYP"},"geometry":{"type":"Point","coordinates":[32.40899398261916,34.753331987424914]}},
{"type":"Feature","properties":{"type":"port","area":"ven-cumana","name":"CUMANA","flag":"VEN"},"geometry":{"type":"Point","coordinates":[-64.21838709746682,10.44256130109324]}},
{"type":"Feature","properties":{"type":"port","area":"aze-aze-26","name":"AZE-26","flag":"AZE"},"geometry":{"type":"Point","coordinates":[51.082352326661436,40.19015208035228]}},
{"type":"Feature","properties":{"type":"port","area":"egy-elarish","name":"ELARISH","flag":"EGY"},"geometry":{"type":"Point","coordinates":[33.81444305486276,31.17518133227062]}},
{"type":"Feature","properties":{"type":"port","area":"bgr-povelyanovo","name":"POVELYANOVO","flag":"BGR"},"geometry":{"type":"Point","coordinates":[27.654803525162773,43.19135497874095]}},
{"type":"Feature","properties":{"type":"port","area":"guy-georgetown","name":"GEORGETOWN","flag":"GUY"},"geometry":{"type":"Point","coordinates":[-58.18342533656498,6.73992227909888]}},
{"type":"Feature","properties":{"type":"port","area":"grl-aasiaat","name":"AASIAAT","flag":"GRL"},"geometry":{"type":"Point","coordinates":[-53.16751149186578,68.50738265338711]}},
{"type":"Feature","properties":{"type":"port","area":"srb-grocka","name":"GROCKA","flag":"SRB"},"geometry":{"type":"Point","coordinates":[20.73941875729688,44.66272450164102]}},
{"type":"Feature","properties":{"type":"port","area":"col-col-37","name":"COL-37","flag":"COL"},"geometry":{"type":"Point","coordinates":[-74.29492728141169,11.079242823368872]}},
{"type":"Feature","properties":{"type":"port","area":"grl-sisimiut","name":"SISIMIUT","flag":"GRL"},"geometry":{"type":"Point","coordinates":[-53.677633435423765,66.94117810634535]}},
{"type":"Feature","properties":{"type":"port","area":"rou-medgidia","name":"MEDGIDIA","flag":"ROU"},"geometry":{"type":"Point","coordinates":[28.30421165141023,44.24790089205181]}},
{"type":"Feature","properties":{"type":"port","area":"prt-tavira","name":"TAVIRA","flag":"PRT"},"geometry":{"type":"Point","coordinates":[-7.629848418138968,37.113514673564076]}},
{"type":"Feature","properties":{"type":"port","area":"tha-samutprakan","name":"SAMUT PRAKAN","flag":"THA"},"geometry":{"type":"Point","coordinates":[100.58733183527369,13.584420395238018]}},
{"type":"Feature","properties":{"type":"port","area":"cyp-cyp-2","name":"CYP-2","flag":"CYP"},"geometry":{"type":"Point","coordinates":[34.07331388572158,34.98195772379485]}},
{"type":"Feature","properties":{"type":"port","area":"sen-dakar","name":"DAKAR","flag":"SEN"},"geometry":{"type":"Point","coordinates":[-17.331323298861648,14.538748514077085]}},
{"type":"Feature","properties":{"type":"port","area":"lbn-jbail","name":"JBAIL","flag":"LBN"},"geometry":{"type":"Point","coordinates":[35.62358626360304,34.1238655585016]}},
{"type":"Feature","properties":{"type":"port","area":"isr-herzliyapituah","name":"HERZLIYA PITUAH","flag":"ISR"},"geometry":{"type":"Point","coordinates":[34.79343365867257,32.16217482083008]}},
{"type":"Feature","properties":{"type":"port","area":"chl-chl-38","name":"CHL-38","flag":"CHL"},"geometry":{"type":"Point","coordinates":[-73.25901900913922,-45.24968657184897]}},
{"type":"Feature","properties":{"type":"port","area":"dom-dom-20","name":"DOM-20","flag":"DOM"},"geometry":{"type":"Point","coordinates":[-69.3382717394595,19.196256185371244]}},
{"type":"Feature","properties":{"type":"port","area":"cri-puntamorales","name":"PUNTA MORALES","flag":"CRI"},"geometry":{"type":"Point","coordinates":[-84.9703298355653,10.064149758947742]}},
{"type":"Feature","properties":{"type":"port","area":"dma-pointemichel","name":"POINTE MICHEL","flag":"DMA"},"geometry":{"type":"Point","coordinates":[-61.381034005839595,15.280043904956464]}},
{"type":"Feature","properties":{"type":"port","area":"arg-corrientes","name":"CORRIENTES","flag":"ARG"},"geometry":{"type":"Point","coordinates":[-58.836507205225516,-27.460524217145625]}},
{"type":"Feature","properties":{"type":"port","area":"bhs-sampsoncay","name":"SAMPSON CAY","flag":"BHS"},"geometry":{"type":"Point","coordinates":[-76.47714040246115,24.207621997358668]}},
{"type":"Feature","properties":{"type":"port","area":"bhs-bhs-34","name":"BHS-34","flag":"BHS"},"geometry":{"type":"Point","coordinates":[-77.83349795559282,25.743833720008887]}},
{"type":"Feature","properties":{"type":"port","area":"nga-koko","name":"KOKO","flag":"NGA"},"geometry":{"type":"Point","coordinates":[5.506898624617099,5.9780825265166095]}},
{"type":"Feature","properties":{"type":"port","area":"irn-jazireh-yelavanoilterminal","name":"JAZIREH-YE LAVAN OIL TERMINAL","flag":"IRN"},"geometry":{"type":"Point","coordinates":[53.35292616800304,26.768145081249443]}},
{"type":"Feature","properties":{"type":"port","area":"bhs-bullockharbour","name":"BULLOCK HARBOUR","flag":"BHS"},"geometry":{"type":"Point","coordinates":[-77.87516885340827,25.755993434305864]}},
{"type":"Feature","properties":{"type":"port","area":"qat-doha","name":"DOHA","flag":"QAT"},"geometry":{"type":"Point","coordinates":[51.64774967419241,25.302869743353412]}},
{"type":"Feature","properties":{"type":"port","area":"nga-nga-57","name":"NGA-57","flag":"NGA"},"geometry":{"type":"Point","coordinates":[6.982681718147679,3.8600126884719304]}},
{"type":"Feature","properties":{"type":"port","area":"dji-doraleh","name":"DORALEH","flag":"DJI"},"geometry":{"type":"Point","coordinates":[43.067743506939614,11.601149155854015]}},
{"type":"Feature","properties":{"type":"port","area":"hun-dunapataj","name":"DUNAPATAJ","flag":"HUN"},"geometry":{"type":"Point","coordinates":[18.9682567077399,46.66029523658573]}},
{"type":"Feature","properties":{"type":"port","area":"prt-moscavide","name":"MOSCAVIDE","flag":"PRT"},"geometry":{"type":"Point","coordinates":[-9.092916175705538,38.755248235053315]}},
{"type":"Feature","properties":{"type":"port","area":"dom-laromana","name":"LA ROMANA","flag":"DOM"},"geometry":{"type":"Point","coordinates":[-68.95904917168829,18.415305745104206]}},
{"type":"Feature","properties":{"type":"port","area":"ala-degerby","name":"DEGERBY","flag":"ALA"},"geometry":{"type":"Point","coordinates":[20.383274631654917,60.030520036880894]}},
{"type":"Feature","properties":{"type":"port","area":"mar-laayoune","name":"LAAYOUNE","flag":"MAR"},"geometry":{"type":"Point","coordinates":[-13.470809484958894,27.086744724540203]}},
{"type":"Feature","properties":{"type":"port","area":"ecu-ecu-44","name":"ECU-44","flag":"ECU"},"geometry":{"type":"Point","coordinates":[-90.34397231205467,-0.48546992016172813]}},
{"type":"Feature","properties":{"type":"port","area":"per-pimentel","name":"PIMENTEL","flag":"PER"},"geometry":{"type":"Point","coordinates":[-79.9382777778,-6.83652777778]}},
{"type":"Feature","properties":{"type":"port","area":"twn-tai-chungkang","name":"TAI-CHUNG KANG","flag":"TWN"},"geometry":{"type":"Point","coordinates":[120.48459322072372,24.296861852474866]}},
{"type":"Feature","properties":{"type":"port","area":"bhs-bhs-52","name":"BHS-52","flag":"BHS"},"geometry":{"type":"Point","coordinates":[-77.09400933135382,26.65411548253393]}},
{"type":"Feature","properties":{"type":"port","area":"rou-slobozia","name":"SLOBOZIA","flag":"ROU"},"geometry":{"type":"Point","coordinates":[25.915924197316567,43.82396276827825]}},
{"type":"Feature","properties":{"type":"port","area":"tto-chaguaramas","name":"CHAGUARAMAS","flag":"TTO"},"geometry":{"type":"Point","coordinates":[-61.329987048579895,10.376720115081842]}},
{"type":"Feature","properties":{"type":"port","area":"hun-bogyiszlo","name":"BOGYISZLO","flag":"HUN"},"geometry":{"type":"Point","coordinates":[18.888058504640636,46.3880987614282]}},
{"type":"Feature","properties":{"type":"port","area":"rou-constanta","name":"CONSTANTA","flag":"ROU"},"geometry":{"type":"Point","coordinates":[28.12798645179939,44.12475702631855]}},
{"type":"Feature","properties":{"type":"port","area":"pri-luism.cintron","name":"LUIS M. CINTRON","flag":"PRI"},"geometry":{"type":"Point","coordinates":[-65.62976424161553,18.289242232095724]}},
{"type":"Feature","properties":{"type":"port","area":"per-pizarro","name":"PIZARRO","flag":"PER"},"geometry":{"type":"Point","coordinates":[-80.3895555556,-3.4995]}},
{"type":"Feature","properties":{"type":"port","area":"bhs-bhs-61","name":"BHS-61","flag":"BHS"},"geometry":{"type":"Point","coordinates":[-79.24698019212804,25.774461034139254]}},
{"type":"Feature","properties":{"type":"port","area":"ven-puertoborburata","name":"PUERTO BORBURATA","flag":"VEN"},"geometry":{"type":"Point","coordinates":[-67.98559667481449,10.488963809230897]}},
{"type":"Feature","properties":{"type":"port","area":"pan-panamacity","name":"PANAMA CITY","flag":"PAN"},"geometry":{"type":"Point","coordinates":[-79.48571830983079,8.839487178536533]}},
{"type":"Feature","properties":{"type":"port","area":"bhs-compasscay","name":"COMPASS CAY","flag":"BHS"},"geometry":{"type":"Point","coordinates":[-76.52916700664153,24.241192062267057]}},
{"type":"Feature","properties":{"type":"port","area":"yem-aden","name":"ADEN","flag":"YEM"},"geometry":{"type":"Point","coordinates":[44.93412717798,12.736322211185838]}},
{"type":"Feature","properties":{"type":"port","area":"ury-lapaloma","name":"LA PALOMA","flag":"URY"},"geometry":{"type":"Point","coordinates":[-54.14376536756176,-34.65356596962773]}},
{"type":"Feature","properties":{"type":"port","area":"vct-kingstown","name":"KINGSTOWN","flag":"VCT"},"geometry":{"type":"Point","coordinates":[-61.22901831063178,13.15039244493236]}},
{"type":"Feature","properties":{"type":"port","area":"pyf-tahaa","name":"TAHAA","flag":"PYF"},"geometry":{"type":"Point","coordinates":[-151.48485000776083,-16.64278024160552]}},
{"type":"Feature","properties":{"type":"port","area":"pol-sopot","name":"SOPOT","flag":"POL"},"geometry":{"type":"Point","coordinates":[18.586359365938925,54.447726787319425]}},
{"type":"Feature","properties":{"type":"port","area":"bgr-bgr-25","name":"BGR-25","flag":"BGR"},"geometry":{"type":"Point","coordinates":[25.17129919911725,43.69920109981208]}},
{"type":"Feature","properties":{"type":"port","area":"cyp-polis","name":"POLIS","flag":"CYP"},"geometry":{"type":"Point","coordinates":[32.39492687420617,35.041663206305074]}},
{"type":"Feature","properties":{"type":"port","area":"cyp-larnaca","name":"LARNACA","flag":"CYP"},"geometry":{"type":"Point","coordinates":[33.66489696174591,34.9188911913774]}},
{"type":"Feature","properties":{"type":"port","area":"atg-bolands","name":"BOLANDS","flag":"ATG"},"geometry":{"type":"Point","coordinates":[-61.90309939677166,17.069704175142128]}},
{"type":"Feature","properties":{"type":"port","area":"aia-sandygroundvillage","name":"SANDY GROUND VILLAGE","flag":"AIA"},"geometry":{"type":"Point","coordinates":[-63.112944603366074,18.20623768604425]}},
{"type":"Feature","properties":{"type":"port","area":"lka-trincomalee","name":"TRINCOMALEE","flag":"LKA"},"geometry":{"type":"Point","coordinates":[81.24845202245747,8.606369133170837]}},
{"type":"Feature","properties":{"type":"port","area":"tun-mersasfax","name":"MERSA SFAX","flag":"TUN"},"geometry":{"type":"Point","coordinates":[10.770249463891458,34.72635571776716]}},
{"type":"Feature","properties":{"type":"port","area":"mar-eljorflasfar","name":"EL JORF LASFAR","flag":"MAR"},"geometry":{"type":"Point","coordinates":[-8.629774069223435,33.12814603073257]}},
{"type":"Feature","properties":{"type":"port","area":"nga-brassoilterminal","name":"BRASS OIL TERMINAL","flag":"NGA"},"geometry":{"type":"Point","coordinates":[6.303142774144815,4.068074452231603]}},
{"type":"Feature","properties":{"type":"port","area":"ago-lobito","name":"LOBITO","flag":"AGO"},"geometry":{"type":"Point","coordinates":[13.582594562856341,-12.2858199340724]}},
{"type":"Feature","properties":{"type":"port","area":"lbn-jounieh","name":"JOUNIEH","flag":"LBN"},"geometry":{"type":"Point","coordinates":[35.609453505027716,33.98376847683294]}},
{"type":"Feature","properties":{"type":"port","area":"dom-santacruzdebarahona","name":"SANTA CRUZ DE BARAHONA","flag":"DOM"},"geometry":{"type":"Point","coordinates":[-71.08846579054685,18.213084357166256]}},
{"type":"Feature","properties":{"type":"port","area":"ven-elpalito","name":"EL PALITO","flag":"VEN"},"geometry":{"type":"Point","coordinates":[-68.12830825308447,10.515565843632377]}},
{"type":"Feature","properties":{"type":"port","area":"pol-hel","name":"HEL","flag":"POL"},"geometry":{"type":"Point","coordinates":[18.69152098715329,54.66631155800026]}},
{"type":"Feature","properties":{"type":"port","area":"vir-portalucroix","name":"PORT ALUCROIX","flag":"VIR"},"geometry":{"type":"Point","coordinates":[-64.7619319195259,17.69238049139938]}},
{"type":"Feature","properties":{"type":"port","area":"bhs-bhs-71","name":"BHS-71","flag":"BHS"},"geometry":{"type":"Point","coordinates":[-78.99180163819575,26.701131759626993]}},
{"type":"Feature","properties":{"type":"port","area":"pry-marianoroquealonso","name":"MARIANO ROQUE ALONSO","flag":"PRY"},"geometry":{"type":"Point","coordinates":[-57.56378922536967,-25.21535510682232]}},
{"type":"Feature","properties":{"type":"port","area":"dza-arzew","name":"ARZEW","flag":"DZA"},"geometry":{"type":"Point","coordinates":[-0.23483847762375643,35.83113889361851]}},
{"type":"Feature","properties":{"type":"port","area":"chl-villapuertoeden","name":"VILLA PUERTO EDEN","flag":"CHL"},"geometry":{"type":"Point","coordinates":[-74.41317009547066,-49.13374051279414]}},
{"type":"Feature","properties":{"type":"port","area":"mar-safi","name":"SAFI","flag":"MAR"},"geometry":{"type":"Point","coordinates":[-9.31708709034622,32.30134953335046]}},
{"type":"Feature","properties":{"type":"port","area":"tha-sirachaterminal","name":"SI RACHA TERMINAL","flag":"THA"},"geometry":{"type":"Point","coordinates":[100.87481565423153,13.115379924741722]}},
{"type":"Feature","properties":{"type":"port","area":"bhs-bhs-68","name":"BHS-68","flag":"BHS"},"geometry":{"type":"Point","coordinates":[-77.75920233425506,25.666588147013012]}},
{"type":"Feature","properties":{"type":"port","area":"twn-kaohsiung","name":"KAOHSIUNG","flag":"TWN"},"geometry":{"type":"Point","coordinates":[120.31645472164523,22.549389879011287]}},
{"type":"Feature","properties":{"type":"port","area":"arg-puertorosales","name":"PUERTO ROSALES","flag":"ARG"},"geometry":{"type":"Point","coordinates":[-62.01597174858669,-38.94937047205989]}},
{"type":"Feature","properties":{"type":"port","area":"mlt-malta","name":"MALTA","flag":"MLT"},"geometry":{"type":"Point","coordinates":[14.828896704326876,35.927655787482784]}},
{"type":"Feature","properties":{"type":"port","area":"fro-sorvagur","name":"SORVAGUR","flag":"FRO"},"geometry":{"type":"Point","coordinates":[-7.326253259101251,62.07117139256547]}},
{"type":"Feature","properties":{"type":"port","area":"chl-chl-76","name":"CHL-76","flag":"CHL"},"geometry":{"type":"Point","coordinates":[-71.54040382622924,-32.92787319746256]}},
{"type":"Feature","properties":{"type":"port","area":"rou-bordusani","name":"BORDUSANI","flag":"ROU"},"geometry":{"type":"Point","coordinates":[27.893791121119193,44.48891077766744]}},
{"type":"Feature","properties":{"type":"port","area":"ecu-monteverde","name":"MONTEVERDE","flag":"ECU"},"geometry":{"type":"Point","coordinates":[-80.74842856234415,-2.065289466169864]}},
{"type":"Feature","properties":{"type":"port","area":"are-crescentmoonisland","name":"CRESCENT MOON ISLAND","flag":"ARE"},"geometry":{"type":"Point","coordinates":[54.66007091065545,25.303605656503986]}},
{"type":"Feature","properties":{"type":"port","area":"est-loksa","name":"LOKSA","flag":"EST"},"geometry":{"type":"Point","coordinates":[25.702717457545663,59.584469427719284]}},
{"type":"Feature","properties":{"type":"port","area":"prt-aveiro","name":"AVEIRO","flag":"PRT"},"geometry":{"type":"Point","coordinates":[-8.829711885301613,40.66312856055064]}},
{"type":"Feature","properties":{"type":"port","area":"bes-sinteustatius","name":"SINT EUSTATIUS","flag":"BES"},"geometry":{"type":"Point","coordinates":[-63.0232189375428,17.496512318244726]}},
{"type":"Feature","properties":{"type":"port","area":"chl-chl-81","name":"CHL-81","flag":"CHL"},"geometry":{"type":"Point","coordinates":[-70.81418820374734,-26.849075998120334]}},
{"type":"Feature","properties":{"type":"port","area":"ury-santiagovazquez","name":"SANTIAGO VAZQUEZ","flag":"URY"},"geometry":{"type":"Point","coordinates":[-56.3520158696573,-34.778321425538124]}},
{"type":"Feature","properties":{"type":"port","area":"isl-olafsfjordhur","name":"OLAFSFJORDHUR","flag":"ISL"},"geometry":{"type":"Point","coordinates":[-18.6463008834272,66.07858502763645]}},
{"type":"Feature","properties":{"type":"port","area":"egy-abuqir","name":"ABU QIR","flag":"EGY"},"geometry":{"type":"Point","coordinates":[30.084809012021452,31.349337092570025]}},
{"type":"Feature","properties":{"type":"port","area":"tun-sfax","name":"SFAX","flag":"TUN"},"geometry":{"type":"Point","coordinates":[10.84089750891685,34.668806533289384]}},
{"type":"Feature","properties":{"type":"port","area":"irl-sligo","name":"SLIGO","flag":"IRL"},"geometry":{"type":"Point","coordinates":[-8.492849289704981,54.28374296549718]}},
{"type":"Feature","properties":{"type":"port","area":"est-kardla","name":"KARDLA","flag":"EST"},"geometry":{"type":"Point","coordinates":[22.75337374095841,59.009643248396145]}},
{"type":"Feature","properties":{"type":"port","area":"arg-bahiablanca","name":"BAHIA BLANCA","flag":"ARG"},"geometry":{"type":"Point","coordinates":[-61.309389297422705,-38.03995037469096]}},
{"type":"Feature","properties":{"type":"port","area":"irl-irl-52","name":"IRL-52","flag":"IRL"},"geometry":{"type":"Point","coordinates":[-9.666702647842598,53.11781784800861]}},
{"type":"Feature","properties":{"type":"port","area":"per-matarani","name":"MATARANI","flag":"PER"},"geometry":{"type":"Point","coordinates":[-72.12352703019566,-16.997331349073093]}},
{"type":"Feature","properties":{"type":"port","area":"lbn-batroun","name":"BATROUN","flag":"LBN"},"geometry":{"type":"Point","coordinates":[35.64585833937999,34.27188252859786]}},
{"type":"Feature","properties":{"type":"port","area":"pan-contadora","name":"CONTADORA","flag":"PAN"},"geometry":{"type":"Point","coordinates":[-79.03330505281303,8.620870826813581]}},
{"type":"Feature","properties":{"type":"port","area":"aia-northhillvillage","name":"NORTH HILL VILLAGE","flag":"AIA"},"geometry":{"type":"Point","coordinates":[-63.075244833980776,18.218882957391944]}},
{"type":"Feature","properties":{"type":"port","area":"isl-grimsey","name":"GRIMSEY","flag":"ISL"},"geometry":{"type":"Point","coordinates":[-18.015846656621445,66.53881981009141]}},
{"type":"Feature","properties":{"type":"port","area":"vir-stthomas","name":"ST THOMAS","flag":"VIR"},"geometry":{"type":"Point","coordinates":[-64.90787626778628,18.31152998819018]}},
{"type":"Feature","properties":{"type":"port","area":"per-bayovar","name":"BAYOVAR","flag":"PER"},"geometry":{"type":"Point","coordinates":[-81.03465160892813,-5.778679099934579]}},
{"type":"Feature","properties":{"type":"port","area":"srb-cukarica","name":"CUKARICA","flag":"SRB"},"geometry":{"type":"Point","coordinates":[20.386259608428137,44.792988762152284]}},
{"type":"Feature","properties":{"type":"port","area":"tha-rawai","name":"RAWAI","flag":"THA"},"geometry":{"type":"Point","coordinates":[98.33248722046477,7.77592992838567]}},
{"type":"Feature","properties":{"type":"port","area":"per-ilo","name":"ILO","flag":"PER"},"geometry":{"type":"Point","coordinates":[-71.28388216097535,-17.71551938473023]}},
{"type":"Feature","properties":{"type":"port","area":"irl-waterford","name":"WATERFORD","flag":"IRL"},"geometry":{"type":"Point","coordinates":[-7.044142283992819,52.25439824425321]}},
{"type":"Feature","properties":{"type":"port","area":"prt-vilamoura","name":"VILAMOURA","flag":"PRT"},"geometry":{"type":"Point","coordinates":[-8.117387298918763,37.06985339753791]}},
{"type":"Feature","properties":{"type":"port","area":"gab-portgentil","name":"PORT GENTIL","flag":"GAB"},"geometry":{"type":"Point","coordinates":[8.802261509566012,-0.6710173227551782]}},
{"type":"Feature","properties":{"type":"port","area":"are-are-155","name":"ARE-155","flag":"ARE"},"geometry":{"type":"Point","coordinates":[54.0638057505244,24.516252322807116]}},
{"type":"Feature","properties":{"type":"port","area":"aia-westendvillage","name":"WEST END VILLAGE","flag":"AIA"},"geometry":{"type":"Point","coordinates":[-63.14249798878064,18.17239932423654]}},
{"type":"Feature","properties":{"type":"port","area":"chl-michilla","name":"MICHILLA","flag":"CHL"},"geometry":{"type":"Point","coordinates":[-70.28993919804613,-22.721768350528894]}},
{"type":"Feature","properties":{"type":"port","area":"are-ruwais","name":"RUWAIS","flag":"ARE"},"geometry":{"type":"Point","coordinates":[52.67388607632506,24.285948731128588]}},
{"type":"Feature","properties":{"type":"port","area":"pri-puertoreal","name":"PUERTO REAL","flag":"PRI"},"geometry":{"type":"Point","coordinates":[-67.19030798852835,18.07340036067492]}},
{"type":"Feature","properties":{"type":"port","area":"ven-catialamar","name":"CATIA LA MAR","flag":"VEN"},"geometry":{"type":"Point","coordinates":[-67.04635554543509,10.602947296240274]}},
{"type":"Feature","properties":{"type":"port","area":"bgr-bgr-21","name":"BGR-21","flag":"BGR"},"geometry":{"type":"Point","coordinates":[27.912711555838836,43.19289637245055]}},
{"type":"Feature","properties":{"type":"port","area":"pry-asuncion","name":"ASUNCION","flag":"PRY"},"geometry":{"type":"Point","coordinates":[-57.900365456881985,-25.772768046633168]}},
{"type":"Feature","properties":{"type":"port","area":"irl-howth","name":"HOWTH","flag":"IRL"},"geometry":{"type":"Point","coordinates":[-7.259487633894066,52.54431979696515]}},
{"type":"Feature","properties":{"type":"port","area":"chl-tocopilla","name":"TOCOPILLA","flag":"CHL"},"geometry":{"type":"Point","coordinates":[-70.21709074088665,-22.076058177165503]}},
{"type":"Feature","properties":{"type":"port","area":"are-abudhabi","name":"ABU DHABI","flag":"ARE"},"geometry":{"type":"Point","coordinates":[54.37845266133117,24.42914865692917]}},
{"type":"Feature","properties":{"type":"port","area":"isr-ashqelon","name":"ASHQELON","flag":"ISR"},"geometry":{"type":"Point","coordinates":[34.50654853680399,31.680030131587053]}},
{"type":"Feature","properties":{"type":"port","area":"rou-gropeni","name":"GROPENI","flag":"ROU"},"geometry":{"type":"Point","coordinates":[27.903317710100577,45.06671015209129]}},
{"type":"Feature","properties":{"type":"port","area":"cyp-ayianapa","name":"AYIA NAPA","flag":"CYP"},"geometry":{"type":"Point","coordinates":[34.00651847571739,34.981401784257194]}},
{"type":"Feature","properties":{"type":"port","area":"mne-lipci","name":"LIPCI","flag":"MNE"},"geometry":{"type":"Point","coordinates":[18.65973740295141,42.490515702656296]}},
{"type":"Feature","properties":{"type":"port","area":"zaf-zaf-28","name":"ZAF-28","flag":"ZAF"},"geometry":{"type":"Point","coordinates":[18.449903947826655,-34.128779974880395]}},
{"type":"Feature","properties":{"type":"port","area":"bhs-bellscay","name":"BELLS CAY","flag":"BHS"},"geometry":{"type":"Point","coordinates":[-76.55185379411469,24.312200765026514]}},
{"type":"Feature","properties":{"type":"port","area":"bgd-monglaanchorage","name":"MONGLA ANCHORAGE","flag":"BGD"},"geometry":{"type":"Point","coordinates":[89.57686654798918,22.17792253123835]}},
{"type":"Feature","properties":{"type":"port","area":"png-alotoa","name":"ALOTOA","flag":"PNG"},"geometry":{"type":"Point","coordinates":[150.4542880679855,-10.315165023066305]}},
{"type":"Feature","properties":{"type":"port","area":"chl-chl-86","name":"CHL-86","flag":"CHL"},"geometry":{"type":"Point","coordinates":[-73.75562271718746,-42.577354111608734]}},
{"type":"Feature","properties":{"type":"port","area":"prt-nazare","name":"NAZARE","flag":"PRT"},"geometry":{"type":"Point","coordinates":[-9.074608416464839,39.58547857679782]}},
{"type":"Feature","properties":{"type":"port","area":"prt-saolourenco","name":"SAO LOURENCO","flag":"PRT"},"geometry":{"type":"Point","coordinates":[-16.69298254275471,32.744355028213086]}},
{"type":"Feature","properties":{"type":"port","area":"isr-hadera","name":"HADERA","flag":"ISR"},"geometry":{"type":"Point","coordinates":[34.862687498404284,32.480855128089246]}},
{"type":"Feature","properties":{"type":"port","area":"aut-korneuburg","name":"KORNEUBURG","flag":"AUT"},"geometry":{"type":"Point","coordinates":[16.354993763992834,48.29081274014524]}},
{"type":"Feature","properties":{"type":"port","area":"chl-sanantonio","name":"SAN ANTONIO","flag":"CHL"},"geometry":{"type":"Point","coordinates":[-71.67237933705105,-33.5927667322526]}},