[
{"type":"Feature","properties":{"type":"port","area":"pri-laparguera","name":"LA PARGUERA"},"geometry":{"type":"Point","coordinates":[-67.04017538548474,17.96646830168471]}},
{"type":"Feature","properties":{"type":"port","area":"bhs-bhs-61","name":"BHS-61"},"geometry":{"type":"Point","coordinates":[-79.24698019212804,25.774461034139254]}},
{"type":"Feature","properties":{"type":"port","area":"srb-zemun","name":"ZEMUN"},"geometry":{"type":"Point","coordinates":[20.405738333561366,44.855028747343745]}},
{"type":"Feature","properties":{"type":"port","area":"srb-starigrad","name":"STARI GRAD"},"geometry":{"type":"Point","coordinates":[20.461897833722592,44.829577346775984]}},
{"type":"Feature","properties":{"type":"port","area":"srb-pancevo","name":"PANCEVO"},"geometry":{"type":"Point","coordinates":[20.635688373141498,44.83800528992456]}},
{"type":"Feature","properties":{"type":"port","area":"prt-portimao","name":"PORTIMAO"},"geometry":{"type":"Point","coordinates":[-8.528457280854543,37.13420614619504]}},
{"type":"Feature","properties":{"type":"port","area":"egy-suezport","name":"SUEZ PORT"},"geometry":{"type":"Point","coordinates":[32.572979957379964,29.947398706424007]}},
{"type":"Feature","properties":{"type":"port","area":"ury-lapaloma","name":"LA PALOMA"},"geometry":{"type":"Point","coordinates":[-54.14376536756176,-34.65356596962773]}},
{"type":"Feature","properties":{"type":"port","area":"ecu-ecu-31","name":"ECU-31"},"geometry":{"type":"Point","coordinates":[-91.08778812044707,-0.599637162274785]}},
{"type":"Feature","properties":{"type":"port","area":"irl-sligo","name":"SLIGO"},"geometry":{"type":"Point","coordinates":[-8.492849289704981,54.28374296549718]}},
{"type":"Feature","properties":{"type":"port","area":"are-minasaqr","name":"MINA SAQR"},"geometry":{"type":"Point","coordinates":[55.988483510634595,26.010928794423688]}},
{"type":"Feature","properties":{"type":"port","area":"aia-westendvillage","name":"WEST END VILLAGE"},"geometry":{"type":"Point","coordinates":[-63.14249861455022,18.17237188499626]}},
{"type":"Feature","properties":{"type":"port","area":"ven-bajogrande","name":"BAJO GRANDE"},"geometry":{"type":"Point","coordinates":[-71.6060466601221,10.514368314869607]}},
{"type":"Feature","properties":{"type":"port","area":"fro-vagur","name":"VAGUR"},"geometry":{"type":"Point","coordinates":[-6.808238355331611,61.47196059553509]}},
{"type":"Feature","properties":{"type":"port","area":"tza-daressalaam","name":"DAR ES SALAAM"},"geometry":{"type":"Point","coordinates":[39.32672657990722,-6.757571988835405]}},
{"type":"Feature","properties":{"type":"port","area":"cub-cub-4","name":"CUB-4"},"geometry":{"type":"Point","coordinates":[-82.49699623602824,23.088582739773006]}},
{"type":"Feature","properties":{"type":"port","area":"prt-gafanhadanazare","name":"GAFANHA DA NAZARE"},"geometry":{"type":"Point","coordinates":[-8.732954283004872,40.64496128842467]}},
{"type":"Feature","properties":{"type":"port","area":"bgr-burgas","name":"BURGAS"},"geometry":{"type":"Point","coordinates":[27.584265805255132,42.4937735194302]}},
{"type":"Feature","properties":{"type":"port","area":"ecu-puertomaritimodeguayaquil","name":"PUERTO MARITIMO DE GUAYAQUIL"},"geometry":{"type":"Point","coordinates":[-79.90468689250991,-2.2829784113426603]}},
{"type":"Feature","properties":{"type":"port","area":"png-lae","name":"LAE"},"geometry":{"type":"Point","coordinates":[146.98972223668974,-6.772684366416035]}},
{"type":"Feature","properties":{"type":"port","area":"chl-chl-76","name":"CHL-76"},"geometry":{"type":"Point","coordinates":[-71.54040382622924,-32.92787319746256]}},
{"type":"Feature","properties":{"type":"port","area":"fro-sorvagur","name":"SORVAGUR"},"geometry":{"type":"Point","coordinates":[-7.326253259101251,62.07117139256547]}},
{"type":"Feature","properties":{"type":"port","area":"rou-bordusani","name":"BORDUSANI"},"geometry":{"type":"Point","coordinates":[27.893791121119193,44.48891077766744]}},
{"type":"Feature","properties":{"type":"port","area":"ecu-ecu-44","name":"ECU-44"},"geometry":{"type":"Point","coordinates":[-90.34397231205467,-0.48546992016172813]}},
{"type":"Feature","properties":{"type":"port","area":"pan-balboa","name":"BALBOA"},"geometry":{"type":"Point","coordinates":[-79.56585471221084,8.95026727829749]}},
{"type":"Feature","properties":{"type":"port","area":"ton-nukualofa","name":"NUKU ALOFA"},"geometry":{"type":"Point","coordinates":[-175.18269223758122,-21.130679964986477]}},
{"type":"Feature","properties":{"type":"port","area":"bhs-bhs-52","name":"BHS-52"},"geometry":{"type":"Point","coordinates":[-77.09400933135382,26.65411548253393]}},
{"type":"Feature","properties":{"type":"port","area":"bhs-bhs-56","name":"BHS-56"},"geometry":{"type":"Point","coordinates":[-75.91643037591619,23.63055242777476]}},
{"type":"Feature","properties":{"type":"port","area":"ven-puertocabello","name":"PUERTO CABELLO"},"geometry":{"type":"Point","coordinates":[-68.00789184229744,10.513316044091642]}},
{"type":"Feature","properties":{"type":"port","area":"tun-menzelbourguiba","name":"MENZEL BOURGUIBA"},"geometry":{"type":"Point","coordinates":[9.808679045297023,37.15826795611992]}},
{"type":"Feature","properties":{"type":"port","area":"grl-illulissat(jakobshavn)","name":"ILLULISSAT (JAKOBSHAVN)"},"geometry":{"type":"Point","coordinates":[-51.10678570714966,69.22660469879956]}},
{"type":"Feature","properties":{"type":"port","area":"rou-braila","name":"BRAILA"},"geometry":{"type":"Point","coordinates":[28.890476742960047,45.19622563892618]}},
{"type":"Feature","properties":{"type":"port","area":"prt-figueiradafoz","name":"FIGUEIRA DA FOZ"},"geometry":{"type":"Point","coordinates":[-8.898168093850117,40.146334695800505]}},
{"type":"Feature","properties":{"type":"port","area":"irq-khawralamaya","name":"KHAWR AL AMAYA"},"geometry":{"type":"Point","coordinates":[48.80098128637047,29.780238995046457]}},
{"type":"Feature","properties":{"type":"port","area":"png-kimbe","name":"KIMBE"},"geometry":{"type":"Point","coordinates":[150.2318686518299,-5.533841870043053]}},
{"type":"Feature","properties":{"type":"port","area":"pri-bahiadefajardo","name":"BAHIA DE FAJARDO"},"geometry":{"type":"Point","coordinates":[-65.62445691043366,18.3364090554501]}},
{"type":"Feature","properties":{"type":"port","area":"per-coishco","name":"COISHCO"},"geometry":{"type":"Point","coordinates":[-78.63104260934111,-9.019115672105567]}},
{"type":"Feature","properties":{"type":"port","area":"bgr-bgr-40","name":"BGR-40"},"geometry":{"type":"Point","coordinates":[25.07627330352024,43.6916560283056]}},
{"type":"Feature","properties":{"type":"port","area":"pri-luism.cintron","name":"LUIS M. CINTRON"},"geometry":{"type":"Point","coordinates":[-65.62988484066852,18.289164788066117]}},
{"type":"Feature","properties":{"type":"port","area":"per-pizarro","name":"PIZARRO"},"geometry":{"type":"Point","coordinates":[-80.3895555556,-3.4995]}},
{"type":"Feature","properties":{"type":"port","area":"tha-naiharn","name":"NAI HARN"},"geometry":{"type":"Point","coordinates":[98.3001195680895,7.777124907916484]}},
{"type":"Feature","properties":{"type":"port","area":"egy-damietta","name":"DAMIETTA"},"geometry":{"type":"Point","coordinates":[31.758649898238218,31.546220880068685]}},
{"type":"Feature","properties":{"type":"port","area":"pyf-papeete","name":"PAPEETE"},"geometry":{"type":"Point","coordinates":[-149.1561748517654,-16.910171503993702]}},
{"type":"Feature","properties":{"type":"port","area":"mar-mohammedia","name":"MOHAMMEDIA"},"geometry":{"type":"Point","coordinates":[-7.383632191622077,33.751243176487066]}},
{"type":"Feature","properties":{"type":"port","area":"mar-tangermed","name":"TANGER MED"},"geometry":{"type":"Point","coordinates":[-5.575860637985173,35.884743400426416]}},
{"type":"Feature","properties":{"type":"port","area":"est-loksa","name":"LOKSA"},"geometry":{"type":"Point","coordinates":[25.702717457545663,59.584469427719284]}},
{"type":"Feature","properties":{"type":"port","area":"bgr-oryahovo","name":"ORYAHOVO"},"geometry":{"type":"Point","coordinates":[23.959874395233822,43.743494065272216]}},
{"type":"Feature","properties":{"type":"port","area":"gib-europapoint","name":"EUROPA POINT"},"geometry":{"type":"Point","coordinates":[-5.357791619747303,36.10506420509313]}},
{"type":"Feature","properties":{"type":"port","area":"zaf-zaf-28","name":"ZAF-28"},"geometry":{"type":"Point","coordinates":[18.449903947826655,-34.128779974880395]}},
{"type":"Feature","properties":{"type":"port","area":"bhs-manofwarcay","name":"MAN OF WAR CAY"},"geometry":{"type":"Point","coordinates":[-77.01849738043114,26.606094565038617]}},
{"type":"Feature","properties":{"type":"port","area":"chl-chl-86","name":"CHL-86"},"geometry":{"type":"Point","coordinates":[-73.75562271718746,-42.577354111608734]}},
{"type":"Feature","properties":{"type":"port","area":"png-alotau","name":"ALOTAU"},"geometry":{"type":"Point","coordinates":[150.41491484153386,-10.310100660191855]}},
{"type":"Feature","properties":{"type":"port","area":"prt-calheta","name":"CALHETA"},"geometry":{"type":"Point","coordinates":[-22.383417241193403,35.546182220450106]}},
{"type":"Feature","properties":{"type":"port","area":"are-are-155","name":"ARE-155"},"geometry":{"type":"Point","coordinates":[54.0638057505244,24.516252322807116]}},
{"type":"Feature","properties":{"type":"port","area":"nga-oduduterminal","name":"ODUDU TERMINAL"},"geometry":{"type":"Point","coordinates":[7.788076523662642,3.9927581996193937]}},
{"type":"Feature","properties":{"type":"port","area":"pri-salinas","name":"SALINAS"},"geometry":{"type":"Point","coordinates":[-66.29129195387819,17.949900987236628]}},
{"type":"Feature","properties":{"type":"port","area":"tto-portofspain","name":"PORT OF SPAIN"},"geometry":{"type":"Point","coordinates":[-61.57814724602039,10.617031624099482]}},
{"type":"Feature","properties":{"type":"port","area":"pan-contadora","name":"CONTADORA"},"geometry":{"type":"Point","coordinates":[-79.03330505281303,8.620870826813581]}},
{"type":"Feature","properties":{"type":"port","area":"dma-roseau","name":"ROSEAU"},"geometry":{"type":"Point","coordinates":[-61.39324495777676,15.307247604415332]}},
{"type":"Feature","properties":{"type":"port","area":"aut-korneuburg","name":"KORNEUBURG"},"geometry":{"type":"Point","coordinates":[16.354904746946616,48.29088133729289]}},
{"type":"Feature","properties":{"type":"port","area":"mne-risan","name":"RISAN"},"geometry":{"type":"Point","coordinates":[18.697849857794516,42.48660561280255]}},
{"type":"Feature","properties":{"type":"port","area":"ven-amuay(bahiadeamuay)","name":"AMUAY (BAHIA DE AMUAY)"},"geometry":{"type":"Point","coordinates":[-70.21669718354481,11.74739885928235]}},
{"type":"Feature","properties":{"type":"port","area":"ecu-lalibertad","name":"LA LIBERTAD"},"geometry":{"type":"Point","coordinates":[-80.91330689783648,-2.163528610666002]}},
{"type":"Feature","properties":{"type":"port","area":"ven-amuay","name":"AMUAY"},"geometry":{"type":"Point","coordinates":[-70.3061662816212,11.773132813094898]}},
{"type":"Feature","properties":{"type":"port","area":"chl-chl-81","name":"CHL-81"},"geometry":{"type":"Point","coordinates":[-70.81418820374734,-26.849075998120334]}},
{"type":"Feature","properties":{"type":"port","area":"pry-sanantonio","name":"SAN ANTONIO"},"geometry":{"type":"Point","coordinates":[-57.558622175413745,-25.43983766799217]}},
{"type":"Feature","properties":{"type":"port","area":"fro-kollafjordur","name":"KOLLAFJORDUR"},"geometry":{"type":"Point","coordinates":[-6.930689905944907,62.10175378673282]}},
{"type":"Feature","properties":{"type":"port","area":"per-pimentel","name":"PIMENTEL"},"geometry":{"type":"Point","coordinates":[-79.9382777778,-6.83652777778]}},
{"type":"Feature","properties":{"type":"port","area":"bhs-bhs-71","name":"BHS-71"},"geometry":{"type":"Point","coordinates":[-78.99180163819575,26.701131759626993]}},
{"type":"Feature","properties":{"type":"port","area":"bgr-bgr-16","name":"BGR-16"},"geometry":{"type":"Point","coordinates":[25.632244300032983,43.6715856863534]}},
{"type":"Feature","properties":{"type":"port","area":"dza-arzew","name":"ARZEW"},"geometry":{"type":"Point","coordinates":[-0.23486023818685314,35.831157614430786]}},
{"type":"Feature","properties":{"type":"port","area":"irl-limerick","name":"LIMERICK"},"geometry":{"type":"Point","coordinates":[-8.644348934662021,52.658156429415016]}},
{"type":"Feature","properties":{"type":"port","area":"bes-thebottom","name":"THE BOTTOM"},"geometry":{"type":"Point","coordinates":[-63.25733175015288,17.63666983026084]}},
{"type":"Feature","properties":{"type":"port","area":"bhs-bhs-68","name":"BHS-68"},"geometry":{"type":"Point","coordinates":[-77.75920233425506,25.666588147013012]}},
{"type":"Feature","properties":{"type":"port","area":"bhs-harveyscay","name":"HARVEYS CAY"},"geometry":{"type":"Point","coordinates":[-76.48143891140333,24.159695618046328]}},
{"type":"Feature","properties":{"type":"port","area":"grl-nuuk","name":"NUUK"},"geometry":{"type":"Point","coordinates":[-51.19454869771069,63.63064330839283]}},
{"type":"Feature","properties":{"type":"port","area":"are-jebeldhanna","name":"JEBEL DHANNA"},"geometry":{"type":"Point","coordinates":[52.65752951826909,24.22750808955099]}},
{"type":"Feature","properties":{"type":"port","area":"aia-northhillvillage","name":"NORTH HILL VILLAGE"},"geometry":{"type":"Point","coordinates":[-63.075244833980776,18.218882957391944]}},
{"type":"Feature","properties":{"type":"port","area":"irn-chabahar","name":"CHABAHAR"},"geometry":{"type":"Point","coordinates":[60.609595173422335,25.307772861617245]}},
{"type":"Feature","properties":{"type":"port","area":"aut-bisamberg","name":"BISAMBERG"},"geometry":{"type":"Point","coordinates":[16.333213662974806,48.32719437702828]}},
{"type":"Feature","properties":{"type":"port","area":"isl-grimsey","name":"GRIMSEY"},"geometry":{"type":"Point","coordinates":[-18.015846656621445,66.53881981009141]}},
{"type":"Feature","properties":{"type":"port","area":"chl-chl-108","name":"CHL-108"},"geometry":{"type":"Point","coordinates":[-74.30520592222314,-41.94148003873829]}},
{"type":"Feature","properties":{"type":"port","area":"hun-budakalasz","name":"BUDAKALASZ"},"geometry":{"type":"Point","coordinates":[19.076460364191018,47.593570659162744]}},
{"type":"Feature","properties":{"type":"port","area":"irn-jazireh-yelavanoilterminal","name":"JAZIREH-YE LAVAN OIL TERMINAL"},"geometry":{"type":"Point","coordinates":[53.35305793492719,26.768702828591906]}},
{"type":"Feature","properties":{"type":"port","area":"mlt-malta","name":"MALTA"},"geometry":{"type":"Point","coordinates":[14.82659636854208,35.928286556171926]}},
{"type":"Feature","properties":{"type":"port","area":"nga-nga-53","name":"NGA-53"},"geometry":{"type":"Point","coordinates":[4.832098271339445,5.727294676503852]}},
{"type":"Feature","properties":{"type":"port","area":"pri-esperanza","name":"ESPERANZA"},"geometry":{"type":"Point","coordinates":[-65.46803606896552,18.091759655869865]}},
{"type":"Feature","properties":{"type":"port","area":"isl-hafnarfjordur","name":"HAFNARFJORDUR"},"geometry":{"type":"Point","coordinates":[-21.96565240574032,64.06494376214718]}},
{"type":"Feature","properties":{"type":"port","area":"pol-nowyport","name":"NOWY PORT"},"geometry":{"type":"Point","coordinates":[18.66251551925617,54.410049973268016]}},
{"type":"Feature","properties":{"type":"port","area":"tha-bangsaphan","name":"BANG SAPHAN"},"geometry":{"type":"Point","coordinates":[99.58101173256561,11.201864835956902]}},
{"type":"Feature","properties":{"type":"port","area":"ecu-ecu-5","name":"ECU-5"},"geometry":{"type":"Point","coordinates":[-90.42969553000921,-1.2195022190216476]}},
{"type":"Feature","properties":{"type":"port","area":"kwt-minaalahmadi","name":"MINA AL AHMADI"},"geometry":{"type":"Point","coordinates":[48.24731994758049,29.074483516463665]}},
{"type":"Feature","properties":{"type":"port","area":"ecu-islapuna","name":"ISLA PUNA"},"geometry":{"type":"Point","coordinates":[-80.15044692289241,-3.0991797956059566]}},
{"type":"Feature","properties":{"type":"port","area":"gin-kamsar","name":"KAMSAR"},"geometry":{"type":"Point","coordinates":[-14.697410746114613,10.523340069941863]}},
{"type":"Feature","properties":{"type":"port","area":"arg-concepciondeluruguay","name":"CONCEPCION DEL URUGUAY"},"geometry":{"type":"Point","coordinates":[-58.221028681896534,-32.48326837311121]}},
{"type":"Feature","properties":{"type":"port","area":"isl-seydhisfjordhur","name":"SEYDHISFJORDHUR"},"geometry":{"type":"Point","coordinates":[-13.990059953263172,65.26852579720679]}},
{"type":"Feature","properties":{"type":"port","area":"aut-ennsdorf","name":"ENNSDORF"},"geometry":{"type":"Point","coordinates":[14.501019115895028,48.229853199302035]}},
{"type":"Feature","properties":{"type":"port","area":"atg-falmouth","name":"FALMOUTH"},"geometry":{"type":"Point","coordinates":[-61.77446302376937,17.00527830055868]}},
{"type":"Feature","properties":{"type":"port","area":"chl-chl-39","name":"CHL-39"},"geometry":{"type":"Point","coordinates":[-73.74560292479286,-44.9192676352572]}},
{"type":"Feature","properties":{"type":"port","area":"rou-nasturelu","name":"NASTURELU"},"geometry":{"type":"Point","coordinates":[25.44736100339842,43.634288239474486]}},
{"type":"Feature","properties":{"type":"port","area":"grl-uummannaqharbor","name":"UUMMANNAQ HARBOR"},"geometry":{"type":"Point","coordinates":[-52.12025734406033,70.67410361134692]}},
{"type":"Feature","properties":{"type":"port","area":"fro-eystur","name":"EYSTUR"},"geometry":{"type":"Point","coordinates":[-6.7071026385631045,62.21210255043399]}},
{"type":"Feature","properties":{"type":"port","area":"blz-blz-3","name":"BLZ-3"},"geometry":{"type":"Point","coordinates":[-88.40393977725942,16.51378013423422]}},
{"type":"Feature","properties":{"type":"port","area":"chl-chl-107","name":"CHL-107"},"geometry":{"type":"Point","coordinates":[-72.59122358903136,-51.450322761497794]}},
{"type":"Feature","properties":{"type":"port","area":"bhs-bhs-41","name":"BHS-41"},"geometry":{"type":"Point","coordinates":[-77.04843642181598,26.45305257100556]}},
{"type":"Feature","properties":{"type":"port","area":"irn-hengamfield","name":"HENGAM FIELD"},"geometry":{"type":"Point","coordinates":[55.97233058983778,26.395129251992937]}},
{"type":"Feature","properties":{"type":"port","area":"gum-apraharbor","name":"APRA HARBOR"},"geometry":{"type":"Point","coordinates":[144.64075913722996,13.44930938566748]}},
{"type":"Feature","properties":{"type":"port","area":"lbn-jdaidetelmatn","name":"JDAIDET EL MATN"},"geometry":{"type":"Point","coordinates":[35.556436956352435,33.90818688890483]}},
{"type":"Feature","properties":{"type":"port","area":"arg-zarate","name":"ZARATE"},"geometry":{"type":"Point","coordinates":[-59.0515027456963,-34.05643774129142]}},
{"type":"Feature","properties":{"type":"port","area":"ecu-monteverde","name":"MONTEVERDE"},"geometry":{"type":"Point","coordinates":[-80.74842856234415,-2.065289466169864]}},
{"type":"Feature","properties":{"type":"port","area":"rou-gropeni","name":"GROPENI"},"geometry":{"type":"Point","coordinates":[27.903317710100577,45.06671015209129]}},
{"type":"Feature","properties":{"type":"port","area":"kwt-kuwaitcity","name":"KUWAIT CITY"},"geometry":{"type":"Point","coordinates":[48.86329160989246,29.632913360027835]}},
{"type":"Feature","properties":{"type":"port","area":"tha-bangkholaem","name":"BANG KHO LAEM"},"geometry":{"type":"Point","coordinates":[100.4926768760197,13.696638333636443]}},
{"type":"Feature","properties":{"type":"port","area":"cmr-ebometerminal","name":"EBOME TERMINAL"},"geometry":{"type":"Point","coordinates":[9.838405009842262,2.8183169032481223]}},
{"type":"Feature","properties":{"type":"port","area":"vut-portvila","name":"PORT VILA"},"geometry":{"type":"Point","coordinates":[168.1783333188131,-17.279557474280068]}},
{"type":"Feature","properties":{"type":"port","area":"guy-georgetown","name":"GEORGETOWN"},"geometry":{"type":"Point","coordinates":[-58.183307718632335,6.740553040710768]}},
{"type":"Feature","properties":{"type":"port","area":"mdv-hulhumale","name":"HULHUMALE"},"geometry":{"type":"Point","coordinates":[73.53152842980582,4.225097558101426]}},
{"type":"Feature","properties":{"type":"port","area":"pyf-portrikitea","name":"PORT RIKITEA"},"geometry":{"type":"Point","coordinates":[-134.96670906389545,-23.116346456821034]}},
{"type":"Feature","properties":{"type":"port","area":"flk-stanley","name":"STANLEY"},"geometry":{"type":"Point","coordinates":[-57.77688945595517,-51.66350812017832]}},
{"type":"Feature","properties":{"type":"port","area":"sjm-bellsund","name":"BELLSUND"},"geometry":{"type":"Point","coordinates":[14.717102463827592,77.56795259511398]}},
{"type":"Feature","properties":{"type":"port","area":"col-col-na","name":"COL-NA"},"geometry":{"type":"Point","coordinates":[-74.30368486260986,11.077910009914824]}},
{"type":"Feature","properties":{"type":"port","area":"gib-gibraltar","name":"GIBRALTAR"},"geometry":{"type":"Point","coordinates":[-5.2989923585173235,36.12613750814746]}},
{"type":"Feature","properties":{"type":"port","area":"sen-ziguinchor","name":"ZIGUINCHOR"},"geometry":{"type":"Point","coordinates":[-16.26816343570948,12.588233987437352]}},
{"type":"Feature","properties":{"type":"port","area":"aut-linz","name":"LINZ"},"geometry":{"type":"Point","coordinates":[14.283688559627363,48.30723481970489]}},
{"type":"Feature","properties":{"type":"port","area":"irl-dublin","name":"DUBLIN"},"geometry":{"type":"Point","coordinates":[-6.138247506155874,53.33217396175252]}},
{"type":"Feature","properties":{"type":"port","area":"cuw-bokasami","name":"BOKA SAMI"},"geometry":{"type":"Point","coordinates":[-69.00121973922252,12.147199360960574]}},
{"type":"Feature","properties":{"type":"port","area":"grl-kangerlusuaq","name":"KANGERLUSUAQ"},"geometry":{"type":"Point","coordinates":[-50.95817662444062,66.95645281278568]}},
{"type":"Feature","properties":{"type":"port","area":"cri-puntaarenas","name":"PUNTAARENAS"},"geometry":{"type":"Point","coordinates":[-84.8305357180114,9.971566974533486]}},
{"type":"Feature","properties":{"type":"port","area":"som-muqdisho","name":"MUQDISHO"},"geometry":{"type":"Point","coordinates":[45.344305724487214,2.0127111214158013]}},
{"type":"Feature","properties":{"type":"port","area":"aut-hainburganderdonau","name":"HAINBURG AN DER DONAU"},"geometry":{"type":"Point","coordinates":[16.94245082543999,48.150348402836066]}},
{"type":"Feature","properties":{"type":"port","area":"bhr-diyaralmuharraq","name":"DIYAR AL MUHARRAQ"},"geometry":{"type":"Point","coordinates":[50.658757139241324,26.28582596923558]}},
{"type":"Feature","properties":{"type":"port","area":"twn-beigan","name":"BEIGAN"},"geometry":{"type":"Point","coordinates":[119.96638986820197,26.205191827397595]}},
{"type":"Feature","properties":{"type":"port","area":"ury-colonia","name":"COLONIA"},"geometry":{"type":"Point","coordinates":[-57.85312296329284,-34.468413992404024]}},
{"type":"Feature","properties":{"type":"port","area":"blz-blz-5","name":"BLZ-5"},"geometry":{"type":"Point","coordinates":[-88.24916144948465,17.47250024669686]}},
{"type":"Feature","properties":{"type":"port","area":"mtq-lemarin","name":"LE MARIN"},"geometry":{"type":"Point","coordinates":[-60.87526274334063,14.459934744038186]}},
{"type":"Feature","properties":{"type":"port","area":"twn-keelung","name":"KEELUNG"},"geometry":{"type":"Point","coordinates":[121.76278051384695,25.1784988469006]}},
{"type":"Feature","properties":{"type":"port","area":"ata-portlockroy","name":"PORT LOCKROY"},"geometry":{"type":"Point","coordinates":[-63.49881217997629,-64.82586992617368]}},
{"type":"Feature","properties":{"type":"port","area":"mnp-saipan","name":"SAIPAN"},"geometry":{"type":"Point","coordinates":[145.73378340109517,15.226303171137062]}},
{"type":"Feature","properties":{"type":"port","area":"omn-minaqabus","name":"MINA QABUS"},"geometry":{"type":"Point","coordinates":[58.56839321442903,23.64360443778464]}},
{"type":"Feature","properties":{"type":"port","area":"mne-prcanj","name":"PRCANJ"},"geometry":{"type":"Point","coordinates":[18.757330831138926,42.481718719086906]}},
{"type":"Feature","properties":{"type":"port","area":"srb-velikogradiste","name":"VELIKO GRADISTE"},"geometry":{"type":"Point","coordinates":[21.48589867028992,44.76698427901451]}},
{"type":"Feature","properties":{"type":"port","area":"com-moroni","name":"MORONI"},"geometry":{"type":"Point","coordinates":[43.2471252823665,-11.700973286382935]}},
{"type":"Feature","properties":{"type":"port","area":"isl-siglufjorhurd","name":"SIGLUFJORHURD"},"geometry":{"type":"Point","coordinates":[-18.894807747715376,66.1581546886851]}},
{"type":"Feature","properties":{"type":"port","area":"per-mollendo","name":"MOLLENDO"},"geometry":{"type":"Point","coordinates":[-72.0140551216656,-17.03273175398127]}},
{"type":"Feature","properties":{"type":"port","area":"prt-vianadocastelo","name":"VIANA DO CASTELO"},"geometry":{"type":"Point","coordinates":[-8.860927414571577,41.68081157480887]}},
{"type":"Feature","properties":{"type":"port","area":"bol-ptosuarezbolivia","name":"PTO SUAREZ BOLIVIA"},"geometry":{"type":"Point","coordinates":[-57.70853055435168,-18.98436422402002]}},
{"type":"Feature","properties":{"type":"port","area":"dza-skikda","name":"SKIKDA"},"geometry":{"type":"Point","coordinates":[6.918771538257265,36.91087838937442]}},
{"type":"Feature","properties":{"type":"port","area":"pry-pry-22","name":"PRY-22"},"geometry":{"type":"Point","coordinates":[-56.02725441526372,-27.309051613010293]}},
{"type":"Feature","properties":{"type":"port","area":"sle-pepel","name":"PEPEL"},"geometry":{"type":"Point","coordinates":[-13.060012916739725,8.570627284643741]}},
{"type":"Feature","properties":{"type":"port","area":"dom-santacruzdebarahona","name":"SANTA CRUZ DE BARAHONA"},"geometry":{"type":"Point","coordinates":[-71.0884802096106,18.213040352069594]}},
{"type":"Feature","properties":{"type":"port","area":"cpv-espargos","name":"ESPARGOS"},"geometry":{"type":"Point","coordinates":[-22.981568888580437,16.75350575411896]}},
{"type":"Feature","properties":{"type":"port","area":"isl-saudarkrokur","name":"SAUDARKROKUR"},"geometry":{"type":"Point","coordinates":[-19.646716071995016,65.75611087260175]}},
{"type":"Feature","properties":{"type":"port","area":"dza-oran","name":"ORAN"},"geometry":{"type":"Point","coordinates":[-0.6256280545815434,35.75190394138345]}},
{"type":"Feature","properties":{"type":"port","area":"cod-block15","name":"BLOCK 15"},"geometry":{"type":"Point","coordinates":[11.071155530167426,-6.275632970550751]}},
{"type":"Feature","properties":{"type":"port","area":"dza-annaba","name":"ANNABA"},"geometry":{"type":"Point","coordinates":[7.800949177247226,36.91905583755197]}},
{"type":"Feature","properties":{"type":"port","area":"hun-budapestxi.kerulet","name":"BUDAPEST XI. KERULET"},"geometry":{"type":"Point","coordinates":[19.060326955249746,47.460266142850614]}},
{"type":"Feature","properties":{"type":"port","area":"chl-antofagasta","name":"ANTOFAGASTA"},"geometry":{"type":"Point","coordinates":[-70.42713791239069,-23.671790876130494]}},
{"type":"Feature","properties":{"type":"port","area":"twn-kaohsiung","name":"KAOHSIUNG"},"geometry":{"type":"Point","coordinates":[120.31762042346162,22.54930746020255]}},
{"type":"Feature","properties":{"type":"port","area":"mar-agadir","name":"AGADIR"},"geometry":{"type":"Point","coordinates":[-9.687879992375724,30.420062930971635]}},
{"type":"Feature","properties":{"type":"port","area":"tca-tca-7","name":"TCA-7"},"geometry":{"type":"Point","coordinates":[-72.1505849903213,21.818199565267975]}},
{"type":"Feature","properties":{"type":"port","area":"cyp-larnaca","name":"LARNACA"},"geometry":{"type":"Point","coordinates":[33.66469579540945,34.918939146087986]}},
{"type":"Feature","properties":{"type":"port","area":"chl-chl-10","name":"CHL-10"},"geometry":{"type":"Point","coordinates":[-73.42209972375653,-39.87832194394588]}},
{"type":"Feature","properties":{"type":"port","area":"bhr-bhr-8","name":"BHR-8"},"geometry":{"type":"Point","coordinates":[50.62074247018271,25.9995591977074]}},
{"type":"Feature","properties":{"type":"port","area":"vgb-jostvandyke","name":"JOST VAN DYKE"},"geometry":{"type":"Point","coordinates":[-64.7388206506539,18.44251689840755]}},
{"type":"Feature","properties":{"type":"port","area":"aut-schwechat","name":"SCHWECHAT"},"geometry":{"type":"Point","coordinates":[16.49613178884207,48.160185067741516]}},
{"type":"Feature","properties":{"type":"port","area":"hun-batya","name":"BATYA"},"geometry":{"type":"Point","coordinates":[18.9150085258842,46.49792416502701]}},
{"type":"Feature","properties":{"type":"port","area":"arg-diamante","name":"DIAMANTE"},"geometry":{"type":"Point","coordinates":[-60.64654101144506,-32.059178219506535]}},
{"type":"Feature","properties":{"type":"port","area":"sjm-nyalesund","name":"NY ALESUND"},"geometry":{"type":"Point","coordinates":[11.934401766442123,78.92876219506186]}},
{"type":"Feature","properties":{"type":"port","area":"are-alhamriya","name":"ALHAMRIYA"},"geometry":{"type":"Point","coordinates":[55.32065041047529,25.30442416537952]}},
{"type":"Feature","properties":{"type":"port","area":"pol-hel","name":"HEL"},"geometry":{"type":"Point","coordinates":[18.691521637064998,54.666313410434]}},
{"type":"Feature","properties":{"type":"port","area":"ata-discoverybay","name":"DISCOVERY BAY"},"geometry":{"type":"Point","coordinates":[-59.715087123581355,-62.475653062311004]}},
{"type":"Feature","properties":{"type":"port","area":"irl-carlingford","name":"CARLINGFORD"},"geometry":{"type":"Point","coordinates":[-6.190679497145573,54.05213499297001]}},
{"type":"Feature","properties":{"type":"port","area":"isr-ashdod","name":"ASHDOD"},"geometry":{"type":"Point","coordinates":[34.607930684099394,31.832989649984366]}},
{"type":"Feature","properties":{"type":"port","area":"grd-mornerouge","name":"MORNE ROUGE"},"geometry":{"type":"Point","coordinates":[-61.761810865638616,12.026369913890896]}},
{"type":"Feature","properties":{"type":"port","area":"are-are-128","name":"ARE-128"},"geometry":{"type":"Point","coordinates":[54.026873946874844,24.1663216619205]}},
{"type":"Feature","properties":{"type":"port","area":"cmr-douala","name":"DOUALA"},"geometry":{"type":"Point","coordinates":[9.581395099301828,3.9539383587156047]}},
{"type":"Feature","properties":{"type":"port","area":"col-col-43","name":"COL-43"},"geometry":{"type":"Point","coordinates":[-74.30392992814149,11.07944367671699]}},
{"type":"Feature","properties":{"type":"port","area":"chl-chl-46","name":"CHL-46"},"geometry":{"type":"Point","coordinates":[-109.39890870760121,-27.176069468674687]}},
{"type":"Feature","properties":{"type":"port","area":"zaf-capetown","name":"CAPETOWN"},"geometry":{"type":"Point","coordinates":[18.386408590155376,-33.91908762097043]}},
{"type":"Feature","properties":{"type":"port","area":"fro-vestmanna","name":"VESTMANNA"},"geometry":{"type":"Point","coordinates":[-7.1695921155354645,62.152046248584305]}},
{"type":"Feature","properties":{"type":"port","area":"pak-karachi","name":"KARACHI"},"geometry":{"type":"Point","coordinates":[66.92430529215545,24.768547277911367]}},
{"type":"Feature","properties":{"type":"port","area":"col-turbo","name":"TURBO"},"geometry":{"type":"Point","coordinates":[-76.78769067419053,7.97169567013296]}},
{"type":"Feature","properties":{"type":"port","area":"col-tolu","name":"TOLU"},"geometry":{"type":"Point","coordinates":[-75.61784827940745,9.504777239626664]}},
{"type":"Feature","properties":{"type":"port","area":"are-ummaldalkh","name":"UMM ALDALKH"},"geometry":{"type":"Point","coordinates":[54.12414455924703,24.609800812515257]}},
{"type":"Feature","properties":{"type":"port","area":"pri-arecibo","name":"ARECIBO"},"geometry":{"type":"Point","coordinates":[-66.70167509874109,18.48019146723591]}},
{"type":"Feature","properties":{"type":"port","area":"cub-nuevitas","name":"NUEVITAS"},"geometry":{"type":"Point","coordinates":[-77.2274999747852,21.555827474122477]}},
{"type":"Feature","properties":{"type":"port","area":"sle-freetown","name":"FREETOWN"},"geometry":{"type":"Point","coordinates":[-13.253305523065851,8.483460844525531]}},
{"type":"Feature","properties":{"type":"port","area":"bgr-nikopol","name":"NIKOPOL"},"geometry":{"type":"Point","coordinates":[24.887393460015865,43.711398099504514]}},
{"type":"Feature","properties":{"type":"port","area":"dza-alger","name":"ALGER"},"geometry":{"type":"Point","coordinates":[3.1154484663828397,36.787606221561916]}},
{"type":"Feature","properties":{"type":"port","area":"col-puertobrisa","name":"PUERTO BRISA"},"geometry":{"type":"Point","coordinates":[-73.38140775124326,11.27367259457016]}},
{"type":"Feature","properties":{"type":"port","area":"are-mubarrazisland","name":"MUBARRAZ ISLAND"},"geometry":{"type":"Point","coordinates":[53.35973956897077,24.492120243337748]}},
{"type":"Feature","properties":{"type":"port","area":"vnm-anduong","name":"AN DUONG"},"geometry":{"type":"Point","coordinates":[106.62894315957733,20.884111432627332]}},
{"type":"Feature","properties":{"type":"port","area":"aut-marbachanderdonau","name":"MARBACH AN DER DONAU"},"geometry":{"type":"Point","coordinates":[15.144374050738282,48.21331546636475]}},
{"type":"Feature","properties":{"type":"port","area":"atg-codrington","name":"CODRINGTON"},"geometry":{"type":"Point","coordinates":[-61.85546657495241,17.614689860944303]}},
{"type":"Feature","properties":{"type":"port","area":"hun-nyergesujfalu","name":"NYERGESUJFALU"},"geometry":{"type":"Point","coordinates":[18.53027491749749,47.75848428479105]}},
{"type":"Feature","properties":{"type":"port","area":"hun-harta","name":"HARTA"},"geometry":{"type":"Point","coordinates":[19.010503265893096,46.704526180332614]}},
{"type":"Feature","properties":{"type":"port","area":"syc-victoria","name":"VICTORIA"},"geometry":{"type":"Point","coordinates":[55.481743431469106,-4.606014440409038]}},
{"type":"Feature","properties":{"type":"port","area":"egy-egy-24","name":"EGY-24"},"geometry":{"type":"Point","coordinates":[32.29235559901413,30.570233778156197]}},
{"type":"Feature","properties":{"type":"port","area":"vct-chateaubelair","name":"CHATEAUBELAIR"},"geometry":{"type":"Point","coordinates":[-61.249342984229415,13.284833643410401]}},
{"type":"Feature","properties":{"type":"port","area":"rou-ciuperceniivechi","name":"CIUPERCENII VECHI"},"geometry":{"type":"Point","coordinates":[22.85811617346817,43.942943454374884]}},
{"type":"Feature","properties":{"type":"port","area":"guy-linden","name":"LINDEN"},"geometry":{"type":"Point","coordinates":[-58.30459425914537,5.998430779092991]}},
{"type":"Feature","properties":{"type":"port","area":"pol-gdansk","name":"GDANSK"},"geometry":{"type":"Point","coordinates":[18.749353738417135,54.409558886285275]}},
{"type":"Feature","properties":{"type":"port","area":"arg-campana","name":"CAMPANA"},"geometry":{"type":"Point","coordinates":[-58.9262740730787,-34.16314937893945]}},
{"type":"Feature","properties":{"type":"port","area":"rou-izvoarele","name":"IZVOARELE"},"geometry":{"type":"Point","coordinates":[25.093372066767163,44.23242233560033]}},
{"type":"Feature","properties":{"type":"port","area":"ecu-ecu-15","name":"ECU-15"},"geometry":{"type":"Point","coordinates":[-90.85892551114368,-0.2398641309965345]}},
{"type":"Feature","properties":{"type":"port","area":"bgd-chittagong","name":"CHITTAGONG"},"geometry":{"type":"Point","coordinates":[91.79173416786531,22.175956275389595]}},
{"type":"Feature","properties":{"type":"port","area":"cog-yomboterminal","name":"YOMBO TERMINAL"},"geometry":{"type":"Point","coordinates":[11.106953103700308,-4.46036285833509]}},
{"type":"Feature","properties":{"type":"port","area":"vnm-quinhon","name":"QUI NHON"},"geometry":{"type":"Point","coordinates":[109.24901062216922,13.775192047269636]}},
{"type":"Feature","properties":{"type":"port","area":"hkg-saikung","name":"SAI KUNG"},"geometry":{"type":"Point","coordinates":[114.27016968547713,22.35283824245352]}},
{"type":"Feature","properties":{"type":"port","area":"qat-qat-29","name":"QAT-29"},"geometry":{"type":"Point","coordinates":[51.51712754137621,25.68721767223912]}},
{"type":"Feature","properties":{"type":"port","area":"tha-yannawa","name":"YAN NAWA"},"geometry":{"type":"Point","coordinates":[100.55147742185345,13.688905991856595]}},
{"type":"Feature","properties":{"type":"port","area":"aut-baddeutsch-altenburg","name":"BAD DEUTSCH-ALTENBURG"},"geometry":{"type":"Point","coordinates":[16.894664152532002,48.138692381709305]}},
{"type":"Feature","properties":{"type":"port","area":"col-santamarta","name":"SANTA MARTA"},"geometry":{"type":"Point","coordinates":[-74.23374370146875,11.154335564889227]}},
{"type":"Feature","properties":{"type":"port","area":"aut-steyregg","name":"STEYREGG"},"geometry":{"type":"Point","coordinates":[14.365746565242137,48.273771017633976]}},
{"type":"Feature","properties":{"type":"port","area":"vnm-vnm-72","name":"VNM-72"},"geometry":{"type":"Point","coordinates":[105.48025898079587,10.342171485769793]}},
{"type":"Feature","properties":{"type":"port","area":"rou-calafat","name":"CALAFAT"},"geometry":{"type":"Point","coordinates":[22.921012718527976,43.99738306151779]}},
{"type":"Feature","properties":{"type":"port","area":"bhs-bhs-14","name":"BHS-14"},"geometry":{"type":"Point","coordinates":[-77.12181133212113,26.667532356088223]}},
{"type":"Feature","properties":{"type":"port","area":"cmr-cmr-11","name":"CMR-11"},"geometry":{"type":"Point","coordinates":[9.398734924393692,4.054326262495068]}},
{"type":"Feature","properties":{"type":"port","area":"rou-sulina","name":"SULINA"},"geometry":{"type":"Point","coordinates":[29.7406460369339,45.14905102880455]}},
{"type":"Feature","properties":{"type":"port","area":"irq-albasrah","name":"AL BASRAH"},"geometry":{"type":"Point","coordinates":[47.85892878264518,30.503546786144405]}},
{"type":"Feature","properties":{"type":"port","area":"pak-gwadar","name":"GWADAR"},"geometry":{"type":"Point","coordinates":[62.344398203444314,25.11230078882048]}},
{"type":"Feature","properties":{"type":"port","area":"are-arzanahisland","name":"ARZANAH ISLAND"},"geometry":{"type":"Point","coordinates":[52.566131878852005,24.77610291085753]}},
{"type":"Feature","properties":{"type":"port","area":"tca-cockburnharbor","name":"COCKBURN HARBOR"},"geometry":{"type":"Point","coordinates":[-71.53871467492169,21.489194859894376]}},
{"type":"Feature","properties":{"type":"port","area":"arg-puertobelgrano","name":"PUERTO BELGRANO"},"geometry":{"type":"Point","coordinates":[-62.10394747615901,-38.89316265362023]}},
{"type":"Feature","properties":{"type":"port","area":"isl-drangsnes","name":"DRANGSNES"},"geometry":{"type":"Point","coordinates":[-21.500934055892138,65.68988237836554]}},
{"type":"Feature","properties":{"type":"port","area":"srb-srb-18","name":"SRB-18"},"geometry":{"type":"Point","coordinates":[20.400904721883556,45.24077557012162]}},
{"type":"Feature","properties":{"type":"port","area":"ago-soyo","name":"SOYO"},"geometry":{"type":"Point","coordinates":[12.293385079177275,-6.073415515370387]}},
{"type":"Feature","properties":{"type":"port","area":"per-huarmey","name":"HUARMEY"},"geometry":{"type":"Point","coordinates":[-78.18807308442757,-10.091547055533683]}},
{"type":"Feature","properties":{"type":"port","area":"zaf-zaf-22","name":"ZAF-22"},"geometry":{"type":"Point","coordinates":[24.852381752938033,-34.18401182083399]}},
{"type":"Feature","properties":{"type":"port","area":"zaf-portelizabeth","name":"PORT ELIZABETH"},"geometry":{"type":"Point","coordinates":[25.700468651687064,-33.85750628968274]}},
{"type":"Feature","properties":{"type":"port","area":"cod-banana","name":"BANANA"},"geometry":{"type":"Point","coordinates":[12.418417018682101,-6.013726977037207]}},
{"type":"Feature","properties":{"type":"port","area":"myt-longoni","name":"LONGONI"},"geometry":{"type":"Point","coordinates":[45.159776831733424,-12.71359418190981]}},
{"type":"Feature","properties":{"type":"port","area":"are-kalbaanchorage","name":"KALBA ANCHORAGE"},"geometry":{"type":"Point","coordinates":[56.460233280204875,25.076987801277372]}},
{"type":"Feature","properties":{"type":"port","area":"tha-sattahip","name":"SATTAHIP"},"geometry":{"type":"Point","coordinates":[100.887496599214,12.602612929299948]}},
{"type":"Feature","properties":{"type":"port","area":"nga-koko","name":"KOKO"},"geometry":{"type":"Point","coordinates":[5.506900966815999,5.978082335127925]}},
{"type":"Feature","properties":{"type":"port","area":"irq-khawralzubair","name":"KHAWR AL ZUBAIR"},"geometry":{"type":"Point","coordinates":[47.886512223422706,30.193104249063317]}},
{"type":"Feature","properties":{"type":"port","area":"ven-lasalina","name":"LA SALINA"},"geometry":{"type":"Point","coordinates":[-71.4907761032361,10.37204501927971]}},
{"type":"Feature","properties":{"type":"port","area":"col-col-8","name":"COL-8"},"geometry":{"type":"Point","coordinates":[-75.51837779653096,10.254103576927355]}},
{"type":"Feature","properties":{"type":"port","area":"pol-darlowo","name":"DARLOWO"},"geometry":{"type":"Point","coordinates":[16.386801506118232,54.43589839735743]}},
{"type":"Feature","properties":{"type":"port","area":"fro-nolsoy","name":"NOLSOY"},"geometry":{"type":"Point","coordinates":[-6.674297233804426,62.008216741484]}},
{"type":"Feature","properties":{"type":"port","area":"pri-lamboglia","name":"LAMBOGLIA"},"geometry":{"type":"Point","coordinates":[-65.99451913213882,17.975578393411215]}},
{"type":"Feature","properties":{"type":"port","area":"hun-nagymaros","name":"NAGYMAROS"},"geometry":{"type":"Point","coordinates":[18.966546765655952,47.793536792411224]}},
{"type":"Feature","properties":{"type":"port","area":"pry-villahayes","name":"VILLA HAYES"},"geometry":{"type":"Point","coordinates":[-57.52541823436745,-25.115767466944487]}},
{"type":"Feature","properties":{"type":"port","area":"bes-bes-5","name":"BES-5"},"geometry":{"type":"Point","coordinates":[-68.2837905826985,12.083079717874803]}},
{"type":"Feature","properties":{"type":"port","area":"brn-muara","name":"MUARA"},"geometry":{"type":"Point","coordinates":[115.10812368772302,5.060464619396906]}},
{"type":"Feature","properties":{"type":"port","area":"cmr-cmr-2","name":"CMR-2"},"geometry":{"type":"Point","coordinates":[8.403574033005928,4.2110844560031255]}},
{"type":"Feature","properties":{"type":"port","area":"bhr-sitrah","name":"SITRAH"},"geometry":{"type":"Point","coordinates":[50.654935243983104,26.122735774251517]}},
{"type":"Feature","properties":{"type":"port","area":"gab-oguendjoterminal","name":"OGUENDJO TERMINAL"},"geometry":{"type":"Point","coordinates":[8.895383641478697,-1.45201436308883]}},
{"type":"Feature","properties":{"type":"port","area":"nga-escravos","name":"ESCRAVOS"},"geometry":{"type":"Point","coordinates":[4.940846401712509,5.515770389904832]}},
{"type":"Feature","properties":{"type":"port","area":"isr-herzliyapituah","name":"HERZLIYA PITUAH"},"geometry":{"type":"Point","coordinates":[34.793434039832825,32.16217595313858]}},
{"type":"Feature","properties":{"type":"port","area":"are-alsadar","name":"ALSADAR"},"geometry":{"type":"Point","coordinates":[54.650912214366016,24.70515277585463]}},
{"type":"Feature","properties":{"type":"port","area":"twn-su-ao","name":"SU-AO"},"geometry":{"type":"Point","coordinates":[121.88387650788981,24.590761096275543]}},
{"type":"Feature","properties":{"type":"port","area":"arg-sanpedro","name":"SAN PEDRO"},"geometry":{"type":"Point","coordinates":[-59.627915905826214,-33.68715999045849]}},
{"type":"Feature","properties":{"type":"port","area":"prt-viladoconde","name":"VILA DO CONDE"},"geometry":{"type":"Point","coordinates":[-8.743115068711099,41.342546233981196]}},
{"type":"Feature","properties":{"type":"port","area":"niu-alofi","name":"ALOFI"},"geometry":{"type":"Point","coordinates":[-169.9240256013007,-19.05379113036802]}},
{"type":"Feature","properties":{"type":"port","area":"grl-qasigiannguit-christianshab","name":"QASIGIANNGUIT-CHRISTIANSHAB"},"geometry":{"type":"Point","coordinates":[-51.20076898567398,68.81474546623987]}},
{"type":"Feature","properties":{"type":"port","area":"hkg-ngongping","name":"NGONG PING"},"geometry":{"type":"Point","coordinates":[113.88387967252226,22.2791428005765]}},
{"type":"Feature","properties":{"type":"port","area":"chl-chl-66","name":"CHL-66"},"geometry":{"type":"Point","coordinates":[-73.2529603477774,-39.448668599256514]}},
{"type":"Feature","properties":{"type":"port","area":"twn-hsinta","name":"HSINTA"},"geometry":{"type":"Point","coordinates":[120.1838107429285,22.85760243859039]}},
{"type":"Feature","properties":{"type":"port","area":"cmr-limbe","name":"LIMBE"},"geometry":{"type":"Point","coordinates":[9.136823129196726,3.9923762180538023]}},
{"type":"Feature","properties":{"type":"port","area":"pol-ustka","name":"USTKA"},"geometry":{"type":"Point","coordinates":[16.85322298245974,54.58517325172042]}},
{"type":"Feature","properties":{"type":"port","area":"est-paldiski","name":"PALDISKI"},"geometry":{"type":"Point","coordinates":[23.980088126297527,59.360404832496286]}},
{"type":"Feature","properties":{"type":"port","area":"are-nasrfield","name":"NASR FIELD"},"geometry":{"type":"Point","coordinates":[53.45349191285449,25.30422995197793]}},
{"type":"Feature","properties":{"type":"port","area":"mda-giurgiulesti","name":"GIURGIULESTI"},"geometry":{"type":"Point","coordinates":[28.207048182109975,45.4695783915685]}},
{"type":"Feature","properties":{"type":"port","area":"are-are-83","name":"ARE-83"},"geometry":{"type":"Point","coordinates":[52.55255483541248,24.92268061670174]}},
{"type":"Feature","properties":{"type":"port","area":"shn-georgetown","name":"GEORGETOWN"},"geometry":{"type":"Point","coordinates":[-14.416034572591057,-7.914518925842169]}},
{"type":"Feature","properties":{"type":"port","area":"arg-puertoingenierowhite","name":"PUERTO INGENIERO WHITE"},"geometry":{"type":"Point","coordinates":[-62.25772909575624,-38.797760182783556]}},
{"type":"Feature","properties":{"type":"port","area":"aia-sandygroundvillage","name":"SANDY GROUND VILLAGE"},"geometry":{"type":"Point","coordinates":[-63.112079695271035,18.20600500567909]}},
{"type":"Feature","properties":{"type":"port","area":"lva-liepaja","name":"LIEPAJA"},"geometry":{"type":"Point","coordinates":[20.857748015709266,56.52551895414864]}},
{"type":"Feature","properties":{"type":"port","area":"chl-chl-71","name":"CHL-71"},"geometry":{"type":"Point","coordinates":[-74.23805154835426,-44.21899106429349]}},
{"type":"Feature","properties":{"type":"port","area":"svn-piran","name":"PIRAN"},"geometry":{"type":"Point","coordinates":[13.568141759741211,45.52534923381929]}},
{"type":"Feature","properties":{"type":"port","area":"irn-khorramshahr","name":"KHORRAMSHAHR"},"geometry":{"type":"Point","coordinates":[48.413920709431814,30.182094949678643]}},
{"type":"Feature","properties":{"type":"port","area":"hti-miragoane","name":"MIRAGOANE"},"geometry":{"type":"Point","coordinates":[-73.09553240882487,18.45129510563921]}},
{"type":"Feature","properties":{"type":"port","area":"pry-pry-11","name":"PRY-11"},"geometry":{"type":"Point","coordinates":[-57.57614179098134,-25.55142400435927]}},
{"type":"Feature","properties":{"type":"port","area":"isl-neskaupstadur","name":"NESKAUPSTADUR"},"geometry":{"type":"Point","coordinates":[-13.695079387537245,65.1453197985724]}},
{"type":"Feature","properties":{"type":"port","area":"egy-rasgharib","name":"RAS GHARIB"},"geometry":{"type":"Point","coordinates":[33.13387053281843,28.322078172455427]}},
{"type":"Feature","properties":{"type":"port","area":"rou-drobeta-turnuseverin","name":"DROBETA-TURNU SEVERIN"},"geometry":{"type":"Point","coordinates":[22.662787047930205,44.62073716164012]}},
{"type":"Feature","properties":{"type":"port","area":"chl-arica","name":"ARICA"},"geometry":{"type":"Point","coordinates":[-70.35480873320157,-18.476878030254476]}},
{"type":"Feature","properties":{"type":"port","area":"jam-ochorios","name":"OCHO RIOS"},"geometry":{"type":"Point","coordinates":[-77.1139808810701,18.410966983059804]}},
{"type":"Feature","properties":{"type":"port","area":"tha-ratburana","name":"RAT BURANA"},"geometry":{"type":"Point","coordinates":[100.51175789250006,13.683817798941172]}},
{"type":"Feature","properties":{"type":"port","area":"lby-alburayqah","name":"AL BURAYQAH"},"geometry":{"type":"Point","coordinates":[19.59420825914852,30.415884705788066]}},
{"type":"Feature","properties":{"type":"port","area":"sur-nieuwamsterdam","name":"NIEUW AMSTERDAM"},"geometry":{"type":"Point","coordinates":[-55.09243454773373,5.865679893545169]}},
{"type":"Feature","properties":{"type":"port","area":"chl-castro","name":"CASTRO"},"geometry":{"type":"Point","coordinates":[-73.75763514584257,-42.4801589941425]}},
{"type":"Feature","properties":{"type":"port","area":"arg-barranqueras","name":"BARRANQUERAS"},"geometry":{"type":"Point","coordinates":[-58.93969673880789,-27.654654960252266]}},
{"type":"Feature","properties":{"type":"port","area":"kir-englishharbor","name":"ENGLISH HARBOR"},"geometry":{"type":"Point","coordinates":[-159.35821978847392,3.859056973458453]}},
{"type":"Feature","properties":{"type":"port","area":"bhs-bhs-73","name":"BHS-73"},"geometry":{"type":"Point","coordinates":[-74.96061514741734,23.101566848711517]}},
{"type":"Feature","properties":{"type":"port","area":"cck-cocos","name":"COCOS"},"geometry":{"type":"Point","coordinates":[96.88127909204036,-12.092108921213638]}},
{"type":"Feature","properties":{"type":"port","area":"cri-cri-17","name":"CRI-17"},"geometry":{"type":"Point","coordinates":[-84.89032410120647,9.776240347783638]}},
{"type":"Feature","properties":{"type":"port","area":"irl-bantry","name":"BANTRY"},"geometry":{"type":"Point","coordinates":[-9.46220217913506,51.681021562355085]}},
{"type":"Feature","properties":{"type":"port","area":"irq-ummqasr","name":"UMM QASR"},"geometry":{"type":"Point","coordinates":[48.34858505123434,29.82940626217573]}},
{"type":"Feature","properties":{"type":"port","area":"egy-aliskandariyh(alexandria)","name":"AL ISKANDARIYH (ALEXANDRIA)"},"geometry":{"type":"Point","coordinates":[29.84619198538237,31.16014811529509]}},
{"type":"Feature","properties":{"type":"port","area":"srb-grocka","name":"GROCKA"},"geometry":{"type":"Point","coordinates":[20.73941875729688,44.66272450164102]}},
{"type":"Feature","properties":{"type":"port","area":"col-col-37","name":"COL-37"},"geometry":{"type":"Point","coordinates":[-74.29492728141169,11.079242823368872]}},
{"type":"Feature","properties":{"type":"port","area":"twn-shenao","name":"SHEN AO"},"geometry":{"type":"Point","coordinates":[121.83591007565694,25.136538498398224]}},
{"type":"Feature","properties":{"type":"port","area":"vut-vut-10","name":"VUT-10"},"geometry":{"type":"Point","coordinates":[168.2431580413209,-17.604635334279756]}},
{"type":"Feature","properties":{"type":"port","area":"twn-donggang","name":"DONGGANG"},"geometry":{"type":"Point","coordinates":[120.44401281490215,22.469090917365516]}},
{"type":"Feature","properties":{"type":"port","area":"ecu-esmeraldas","name":"ESMERALDAS"},"geometry":{"type":"Point","coordinates":[-79.69344985271125,1.0384947698293536]}},
{"type":"Feature","properties":{"type":"port","area":"tun-rades","name":"RADES"},"geometry":{"type":"Point","coordinates":[10.353409227308656,36.817850767387924]}},
{"type":"Feature","properties":{"type":"port","area":"are-abkfield","name":"ABK FIELD"},"geometry":{"type":"Point","coordinates":[53.13679460307612,25.48735951141125]}},
{"type":"Feature","properties":{"type":"port","area":"pan-colon","name":"COLON"},"geometry":{"type":"Point","coordinates":[-79.9169921280802,9.358542406180884]}},
{"type":"Feature","properties":{"type":"port","area":"moz-quelimane","name":"QUELIMANE"},"geometry":{"type":"Point","coordinates":[36.880135672185084,-17.880627046400107]}},
{"type":"Feature","properties":{"type":"port","area":"sjm-longyearbyen","name":"LONGYEARBYEN"},"geometry":{"type":"Point","coordinates":[14.256934000266455,78.54712353765657]}},
{"type":"Feature","properties":{"type":"port","area":"isr-acre","name":"ACRE"},"geometry":{"type":"Point","coordinates":[35.07019663637189,32.91909609387157]}},
{"type":"Feature","properties":{"type":"port","area":"aia-blowingpointvillage","name":"BLOWING POINT VILLAGE"},"geometry":{"type":"Point","coordinates":[-63.109440106048496,18.17106190827932]}},
{"type":"Feature","properties":{"type":"port","area":"bgr-vidin","name":"VIDIN"},"geometry":{"type":"Point","coordinates":[22.88186386880157,43.98200438704778]}},
{"type":"Feature","properties":{"type":"port","area":"gnq-puntaeuropaterminal","name":"PUNTA EUROPA TERMINAL"},"geometry":{"type":"Point","coordinates":[8.725376606418285,3.7915768115919732]}},
{"type":"Feature","properties":{"type":"port","area":"cmr-cmr-21","name":"CMR-21"},"geometry":{"type":"Point","coordinates":[9.803899054311488,2.927463573887758]}},
{"type":"Feature","properties":{"type":"port","area":"prt-lisboa","name":"LISBOA"},"geometry":{"type":"Point","coordinates":[-9.011855897766987,38.58657685541344]}},
{"type":"Feature","properties":{"type":"port","area":"chl-chonchi","name":"CHONCHI"},"geometry":{"type":"Point","coordinates":[-73.76443729802709,-42.61927517703659]}},
{"type":"Feature","properties":{"type":"port","area":"rou-ovidiu","name":"OVIDIU"},"geometry":{"type":"Point","coordinates":[28.546279184915594,44.270568116393534]}},
{"type":"Feature","properties":{"type":"port","area":"isl-reydarfjordur","name":"REYDARFJORDUR"},"geometry":{"type":"Point","coordinates":[-14.16718573488837,65.02881700144894]}},
{"type":"Feature","properties":{"type":"port","area":"prt-lagos","name":"LAGOS"},"geometry":{"type":"Point","coordinates":[-8.658454370483916,37.104536632787706]}},
{"type":"Feature","properties":{"type":"port","area":"ury-puertosauce","name":"PUERTO SAUCE"},"geometry":{"type":"Point","coordinates":[-57.44485225049294,-34.440317161387206]}},
{"type":"Feature","properties":{"type":"port","area":"vir-portalucroix","name":"PORT ALUCROIX"},"geometry":{"type":"Point","coordinates":[-64.7619364032652,17.692387516333557]}},
{"type":"Feature","properties":{"type":"port","area":"are-ummalquwain","name":"UMM AL QUWAIN"},"geometry":{"type":"Point","coordinates":[55.560228826851215,25.54403562653039]}},
{"type":"Feature","properties":{"type":"port","area":"cub-guayabal","name":"GUAYABAL"},"geometry":{"type":"Point","coordinates":[-77.61892375453286,20.683446434106536]}},
{"type":"Feature","properties":{"type":"port","area":"nga-nga-57","name":"NGA-57"},"geometry":{"type":"Point","coordinates":[6.982681718147679,3.8600126884719304]}},
{"type":"Feature","properties":{"type":"port","area":"irn-bandarabbas","name":"BANDAR ABBAS"},"geometry":{"type":"Point","coordinates":[56.25029687213529,27.08438756581655]}},
{"type":"Feature","properties":{"type":"port","area":"isl-holmavik","name":"HOLMAVIK"},"geometry":{"type":"Point","coordinates":[-21.665723341944197,65.70520361663404]}},
{"type":"Feature","properties":{"type":"port","area":"are-jebelali","name":"JEBEL ALI"},"geometry":{"type":"Point","coordinates":[55.00091340526887,25.047785761045656]}},
{"type":"Feature","properties":{"type":"port","area":"tha-bangkok","name":"BANGKOK"},"geometry":{"type":"Point","coordinates":[100.59811946419906,13.497741362591437]}},
{"type":"Feature","properties":{"type":"port","area":"hti-caphaitien","name":"CAP HAITIEN"},"geometry":{"type":"Point","coordinates":[-72.19295454444766,19.75833254627224]}},
{"type":"Feature","properties":{"type":"port","area":"bhs-bhs-74","name":"BHS-74"},"geometry":{"type":"Point","coordinates":[-78.8463211317455,26.54331633004742]}},
{"type":"Feature","properties":{"type":"port","area":"nic-corinto","name":"CORINTO"},"geometry":{"type":"Point","coordinates":[-87.20369084255226,12.47062039532551]}},
{"type":"Feature","properties":{"type":"port","area":"per-per-51","name":"PER-51"},"geometry":{"type":"Point","coordinates":[-80.38955556,-3.4995]}},
{"type":"Feature","properties":{"type":"port","area":"ago-namibe","name":"NAMIBE"},"geometry":{"type":"Point","coordinates":[12.13323483729875,-15.164801333891598]}},
{"type":"Feature","properties":{"type":"port","area":"png-portmoresby","name":"PORT MORESBY"},"geometry":{"type":"Point","coordinates":[147.13992169600334,-9.498776499626075]}},
{"type":"Feature","properties":{"type":"port","area":"egy-suezsouthanchorage","name":"SUEZ SOUTH ANCHORAGE"},"geometry":{"type":"Point","coordinates":[32.57841858360553,29.744647963284777]}},
{"type":"Feature","properties":{"type":"port","area":"png-vanimo","name":"VANIMO"},"geometry":{"type":"Point","coordinates":[141.88424421477924,-2.9109927653635896]}},
{"type":"Feature","properties":{"type":"port","area":"chl-tenaun","name":"TENAUN"},"geometry":{"type":"Point","coordinates":[-73.37371563249823,-42.33789759721807]}},
{"type":"Feature","properties":{"type":"port","area":"aut-scharndorf","name":"SCHARNDORF"},"geometry":{"type":"Point","coordinates":[16.80405264161398,48.11527922564163]}},
{"type":"Feature","properties":{"type":"port","area":"vir-vir-19","name":"VIR-19"},"geometry":{"type":"Point","coordinates":[-64.90041185262328,18.28241110166279]}},
{"type":"Feature","properties":{"type":"port","area":"egy-elturharbor","name":"EL TUR HARBOR"},"geometry":{"type":"Point","coordinates":[33.615322145504614,28.224288254490713]}},
{"type":"Feature","properties":{"type":"port","area":"ven-puertocumarebo","name":"PUERTO CUMAREBO"},"geometry":{"type":"Point","coordinates":[-69.33196388559195,11.513226973676444]}},
{"type":"Feature","properties":{"type":"port","area":"nga-calabar","name":"CALABAR"},"geometry":{"type":"Point","coordinates":[8.305129114279515,4.942619252259238]}},
{"type":"Feature","properties":{"type":"port","area":"irl-irl-52","name":"IRL-52"},"geometry":{"type":"Point","coordinates":[-9.666702567414204,53.117818051810275]}},
{"type":"Feature","properties":{"type":"port","area":"zaf-richardsbay","name":"RICHARDS BAY"},"geometry":{"type":"Point","coordinates":[32.12344927421084,-28.8490494200904]}},
{"type":"Feature","properties":{"type":"port","area":"gtm-puertoquetzal","name":"PUERTO QUETZAL"},"geometry":{"type":"Point","coordinates":[-90.78400800897823,13.890521473181266]}},
{"type":"Feature","properties":{"type":"port","area":"hun-budapest","name":"BUDAPEST"},"geometry":{"type":"Point","coordinates":[19.042305174780974,47.50304819844919]}},
{"type":"Feature","properties":{"type":"port","area":"cyp-cyp-11","name":"CYP-11"},"geometry":{"type":"Point","coordinates":[33.16634119579029,34.70932221182224]}},
{"type":"Feature","properties":{"type":"port","area":"hnd-puertodehencan","name":"PUERTO DE HENCAN"},"geometry":{"type":"Point","coordinates":[-87.42359057411356,13.40149998895414]}},
{"type":"Feature","properties":{"type":"port","area":"hun-tat","name":"TAT"},"geometry":{"type":"Point","coordinates":[18.621004592896632,47.7589599956707]}},
{"type":"Feature","properties":{"type":"port","area":"egy-egy-65","name":"EGY-65"},"geometry":{"type":"Point","coordinates":[33.110880825298494,28.619248359965155]}},
{"type":"Feature","properties":{"type":"port","area":"prt-cascais","name":"CASCAIS"},"geometry":{"type":"Point","coordinates":[-9.416600815166104,38.692914460227016]}},
{"type":"Feature","properties":{"type":"port","area":"gnq-malabo","name":"MALABO"},"geometry":{"type":"Point","coordinates":[8.771779087114531,3.779586826945822]}},
{"type":"Feature","properties":{"type":"port","area":"vut-isangel","name":"ISANGEL"},"geometry":{"type":"Point","coordinates":[169.26461555792343,-19.53414311252373]}},
{"type":"Feature","properties":{"type":"port","area":"prt-trafaria","name":"TRAFARIA"},"geometry":{"type":"Point","coordinates":[-9.236422247791355,38.67588492421655]}},
{"type":"Feature","properties":{"type":"port","area":"arg-sanantonioeste","name":"SAN ANTONIO ESTE"},"geometry":{"type":"Point","coordinates":[-65.29520952757113,-42.8215870139553]}},
{"type":"Feature","properties":{"type":"port","area":"pyf-tohautu","name":"TOHAUTU"},"geometry":{"type":"Point","coordinates":[-149.32935225275483,-17.73212402603692]}},
{"type":"Feature","properties":{"type":"port","area":"lka-negombo","name":"NEGOMBO"},"geometry":{"type":"Point","coordinates":[79.82724849510535,7.205705684616121]}},
{"type":"Feature","properties":{"type":"port","area":"svn-ankaran","name":"ANKARAN"},"geometry":{"type":"Point","coordinates":[13.689862669719423,45.57247706601241]}},
{"type":"Feature","properties":{"type":"port","area":"ala-sottunga","name":"SOTTUNGA"},"geometry":{"type":"Point","coordinates":[20.681335076433733,60.109812316749895]}},
{"type":"Feature","properties":{"type":"port","area":"grl-maniitsoq","name":"MANIITSOQ"},"geometry":{"type":"Point","coordinates":[-52.898454922898274,65.41200635371753]}},
{"type":"Feature","properties":{"type":"port","area":"col-tumaco","name":"TUMACO"},"geometry":{"type":"Point","coordinates":[-78.73131033781813,1.818197046209087]}},
{"type":"Feature","properties":{"type":"port","area":"srb-belgrade","name":"BELGRADE"},"geometry":{"type":"Point","coordinates":[20.447654745741,44.80829626415123]}},
{"type":"Feature","properties":{"type":"port","area":"rou-rou-5","name":"ROU-5"},"geometry":{"type":"Point","coordinates":[22.059445063582515,44.539477255035976]}},
{"type":"Feature","properties":{"type":"port","area":"rou-unirea","name":"UNIREA"},"geometry":{"type":"Point","coordinates":[27.640833710366604,44.266142149522594]}},
{"type":"Feature","properties":{"type":"port","area":"ury-nuevapalmira","name":"NUEVA PALMIRA"},"geometry":{"type":"Point","coordinates":[-58.42853049920048,-33.80475685426732]}},
{"type":"Feature","properties":{"type":"port","area":"gha-tema","name":"TEMA"},"geometry":{"type":"Point","coordinates":[0.04730777490349087,5.571299537127525]}},
{"type":"Feature","properties":{"type":"port","area":"aze-alat","name":"ALAT"},"geometry":{"type":"Point","coordinates":[49.443517105540565,39.97114049104487]}},
{"type":"Feature","properties":{"type":"port","area":"chl-puertochacabuco","name":"PUERTO CHACABUCO"},"geometry":{"type":"Point","coordinates":[-72.82819547822848,-45.47047365316048]}},
{"type":"Feature","properties":{"type":"port","area":"sen-dakar","name":"DAKAR"},"geometry":{"type":"Point","coordinates":[-17.331717841700033,14.539076273293706]}},
{"type":"Feature","properties":{"type":"port","area":"irl-cobh","name":"COBH"},"geometry":{"type":"Point","coordinates":[-8.308525698020953,51.84656827298229]}},
{"type":"Feature","properties":{"type":"port","area":"mne-kotor","name":"KOTOR"},"geometry":{"type":"Point","coordinates":[18.828988030828086,42.343194670677775]}},
{"type":"Feature","properties":{"type":"port","area":"per-chorrillos","name":"CHORRILLOS"},"geometry":{"type":"Point","coordinates":[-77.02681992390312,-12.155041645649373]}},
{"type":"Feature","properties":{"type":"port","area":"cyp-akrotiri","name":"AKROTIRI"},"geometry":{"type":"Point","coordinates":[33.03447872200783,34.58103800649438]}},
{"type":"Feature","properties":{"type":"port","area":"prt-vilamoura","name":"VILAMOURA"},"geometry":{"type":"Point","coordinates":[-8.117435830282549,37.06989381435943]}},
{"type":"Feature","properties":{"type":"port","area":"gab-portgentil","name":"PORT GENTIL"},"geometry":{"type":"Point","coordinates":[8.8021780478795,-0.6710342254427722]}},
{"type":"Feature","properties":{"type":"port","area":"ecu-santaelena","name":"SANTA ELENA"},"geometry":{"type":"Point","coordinates":[-80.92058622800768,-2.1572431899108873]}},
{"type":"Feature","properties":{"type":"port","area":"lbn-bayrut","name":"BAYRUT"},"geometry":{"type":"Point","coordinates":[35.5072590721913,33.91304897533088]}},
{"type":"Feature","properties":{"type":"port","area":"egy-abuqir","name":"ABU QIR"},"geometry":{"type":"Point","coordinates":[30.08481642244065,31.3493656294806]}},
{"type":"Feature","properties":{"type":"port","area":"pol-portpolnochny","name":"PORT POLNOCHNY"},"geometry":{"type":"Point","coordinates":[18.714483992546295,54.399786292098845]}},
{"type":"Feature","properties":{"type":"port","area":"tha-phuket","name":"PHUKET"},"geometry":{"type":"Point","coordinates":[98.44684607102386,7.884994133002012]}},
{"type":"Feature","properties":{"type":"port","area":"zaf-durban","name":"DURBAN"},"geometry":{"type":"Point","coordinates":[31.029364585736463,-29.92707371328321]}},
{"type":"Feature","properties":{"type":"port","area":"chl-chl-85","name":"CHL-85"},"geometry":{"type":"Point","coordinates":[-70.43312400586076,-53.30391889545298]}},
{"type":"Feature","properties":{"type":"port","area":"tza-tanga","name":"TANGA"},"geometry":{"type":"Point","coordinates":[39.15119066573604,-5.043192068652549]}},
{"type":"Feature","properties":{"type":"port","area":"mac-macau","name":"MACAU"},"geometry":{"type":"Point","coordinates":[113.5624263678294,22.19242222238587]}},
{"type":"Feature","properties":{"type":"port","area":"hnd-omoa","name":"OMOA"},"geometry":{"type":"Point","coordinates":[-88.04905030372096,15.791062754964242]}},
{"type":"Feature","properties":{"type":"port","area":"fro-torshavn","name":"TORSHAVN"},"geometry":{"type":"Point","coordinates":[-6.863944585678999,62.09192379420247]}},
{"type":"Feature","properties":{"type":"port","area":"pan-panamacanalanchorage","name":"PANAMA CANAL ANCHORAGE"},"geometry":{"type":"Point","coordinates":[-79.58139659013743,8.98396527141442]}},
{"type":"Feature","properties":{"type":"port","area":"srb-novislankamen","name":"NOVI SLANKAMEN"},"geometry":{"type":"Point","coordinates":[20.27835187532111,45.12808163612049]}},
{"type":"Feature","properties":{"type":"port","area":"dom-dom-16","name":"DOM-16"},"geometry":{"type":"Point","coordinates":[-68.3808058745125,18.502160863920267]}},
{"type":"Feature","properties":{"type":"port","area":"gab-caplopez","name":"CAP LOPEZ"},"geometry":{"type":"Point","coordinates":[8.728985436938936,-0.6240895821931398]}},
{"type":"Feature","properties":{"type":"port","area":"pry-villaelisa","name":"VILLA ELISA"},"geometry":{"type":"Point","coordinates":[-57.61507376567571,-25.386499799651855]}},
{"type":"Feature","properties":{"type":"port","area":"pri-mariaantonia","name":"MARIA ANTONIA"},"geometry":{"type":"Point","coordinates":[-66.87422522491275,17.94601696165777]}},
{"type":"Feature","properties":{"type":"port","area":"sur-sur-5","name":"SUR-5"},"geometry":{"type":"Point","coordinates":[-55.06406278635934,5.657385044942788]}},
{"type":"Feature","properties":{"type":"port","area":"cyp-limassol","name":"LIMASSOL"},"geometry":{"type":"Point","coordinates":[33.03987712174866,34.6547888465615]}},
{"type":"Feature","properties":{"type":"port","area":"prt-praia","name":"PRAIA"},"geometry":{"type":"Point","coordinates":[-27.96842248981634,39.05241539205293]}},
{"type":"Feature","properties":{"type":"port","area":"prt-tavira","name":"TAVIRA"},"geometry":{"type":"Point","coordinates":[-7.629848418138968,37.113514673564076]}},
{"type":"Feature","properties":{"type":"port","area":"bhs-bhs-29","name":"BHS-29"},"geometry":{"type":"Point","coordinates":[-77.28560735926999,25.075615210583827]}},
{"type":"Feature","properties":{"type":"port","area":"irl-wicklow","name":"WICKLOW"},"geometry":{"type":"Point","coordinates":[-6.032890767152904,52.982005963542115]}},
{"type":"Feature","properties":{"type":"port","area":"ven-puertoordaz","name":"PUERTO ORDAZ"},"geometry":{"type":"Point","coordinates":[-62.14328927426512,8.497038501901852]}},
{"type":"Feature","properties":{"type":"port","area":"chl-chl-38","name":"CHL-38"},"geometry":{"type":"Point","coordinates":[-73.25901900913922,-45.24968657184897]}},
{"type":"Feature","properties":{"type":"port","area":"cyp-cyp-2","name":"CYP-2"},"geometry":{"type":"Point","coordinates":[34.07331388572158,34.98195772379485]}},
{"type":"Feature","properties":{"type":"port","area":"cri-puntamorales","name":"PUNTA MORALES"},"geometry":{"type":"Point","coordinates":[-84.9703298355653,10.064149758947742]}},
{"type":"Feature","properties":{"type":"port","area":"ury-montevideo","name":"MONTEVIDEO"},"geometry":{"type":"Point","coordinates":[-56.1581964694653,-34.955544140138755]}},
{"type":"Feature","properties":{"type":"port","area":"ncl-baiedekouaoua","name":"BAIE DE KOUAOUA"},"geometry":{"type":"Point","coordinates":[165.83342421677497,-21.373780528770098]}},
{"type":"Feature","properties":{"type":"port","area":"isl-akureyri","name":"AKUREYRI"},"geometry":{"type":"Point","coordinates":[-18.102773607911583,65.69793155342458]}},
{"type":"Feature","properties":{"type":"port","area":"bhs-bhs-34","name":"BHS-34"},"geometry":{"type":"Point","coordinates":[-77.83349795559282,25.743833720008887]}},
{"type":"Feature","properties":{"type":"port","area":"geo-poti","name":"POTI"},"geometry":{"type":"Point","coordinates":[41.61539496500483,42.164578110113965]}},
{"type":"Feature","properties":{"type":"port","area":"irn-kish","name":"KISH"},"geometry":{"type":"Point","coordinates":[53.63223195447823,26.60266078160558]}},
{"type":"Feature","properties":{"type":"port","area":"arg-corrientes","name":"CORRIENTES"},"geometry":{"type":"Point","coordinates":[-58.836507205225516,-27.460524217145625]}},
{"type":"Feature","properties":{"type":"port","area":"mne-herceg-novi","name":"HERCEG-NOVI"},"geometry":{"type":"Point","coordinates":[18.55615845988997,42.44717091418893]}},
{"type":"Feature","properties":{"type":"port","area":"chl-chl-44","name":"CHL-44"},"geometry":{"type":"Point","coordinates":[-73.70494896913141,-45.2911679309251]}},
{"type":"Feature","properties":{"type":"port","area":"qat-qat-23","name":"QAT-23"},"geometry":{"type":"Point","coordinates":[52.36164333098275,25.328289784640994]}},
{"type":"Feature","properties":{"type":"port","area":"twn-penghucounty","name":"PENGHU COUNTY"},"geometry":{"type":"Point","coordinates":[119.62663241446371,23.66103565580573]}},
{"type":"Feature","properties":{"type":"port","area":"cub-guantanamo","name":"GUANTANAMO"},"geometry":{"type":"Point","coordinates":[-75.15157453668725,19.9159644572778]}},
{"type":"Feature","properties":{"type":"port","area":"guf-kourou","name":"KOUROU"},"geometry":{"type":"Point","coordinates":[-52.66838486351809,5.151294829854066]}},
{"type":"Feature","properties":{"type":"port","area":"yem-almukha","name":"AL MUKHA"},"geometry":{"type":"Point","coordinates":[43.22982144921593,13.313682627383356]}},
{"type":"Feature","properties":{"type":"port","area":"ven-cumana","name":"CUMANA"},"geometry":{"type":"Point","coordinates":[-64.21838709746682,10.44256130109324]}},
{"type":"Feature","properties":{"type":"port","area":"cub-mariel","name":"MARIEL"},"geometry":{"type":"Point","coordinates":[-82.75543646259177,23.01194886615183]}},
{"type":"Feature","properties":{"type":"port","area":"col-barranquilla","name":"BARRANQUILLA"},"geometry":{"type":"Point","coordinates":[-74.86002183797683,11.063743865775196]}},
{"type":"Feature","properties":{"type":"port","area":"prt-moscavide","name":"MOSCAVIDE"},"geometry":{"type":"Point","coordinates":[-9.092916175705538,38.755248235053315]}},
{"type":"Feature","properties":{"type":"port","area":"isl-akranes","name":"AKRANES"},"geometry":{"type":"Point","coordinates":[-22.084805417188576,64.31385700889554]}},
{"type":"Feature","properties":{"type":"port","area":"egy-rasshukhier","name":"RAS SHUKHIER"},"geometry":{"type":"Point","coordinates":[33.273755400019326,28.14434875698807]}},
{"type":"Feature","properties":{"type":"port","area":"ven-cumana(puertosucre)","name":"CUMANA (PUERTO SUCRE)"},"geometry":{"type":"Point","coordinates":[-64.1918433460718,10.472128962885563]}},
{"type":"Feature","properties":{"type":"port","area":"gab-m'byaoilterminal","name":"M'BYA OIL TERMINAL"},"geometry":{"type":"Point","coordinates":[10.93168019372774,-3.8839113274993653]}},
{"type":"Feature","properties":{"type":"port","area":"cuw-willemstad","name":"WILLEMSTAD"},"geometry":{"type":"Point","coordinates":[-68.93198716818677,12.102667252805258]}},
{"type":"Feature","properties":{"type":"port","area":"glp-gustavia","name":"GUSTAVIA"},"geometry":{"type":"Point","coordinates":[-62.863179461158666,17.903992935865155]}},
{"type":"Feature","properties":{"type":"port","area":"zaf-simonstown","name":"SIMONSTOWN"},"geometry":{"type":"Point","coordinates":[18.438859432299772,-34.18974803425537]}},
{"type":"Feature","properties":{"type":"port","area":"chl-tocopilla","name":"TOCOPILLA"},"geometry":{"type":"Point","coordinates":[-70.21686383630328,-22.07662777573494]}},
{"type":"Feature","properties":{"type":"port","area":"twn-kaosiung","name":"KAOSIUNG"},"geometry":{"type":"Point","coordinates":[120.29581347007635,22.58644685028147]}},
{"type":"Feature","properties":{"type":"port","area":"mmr-rangoon","name":"RANGOON"},"geometry":{"type":"Point","coordinates":[96.16964497513021,16.76434634758015]}},
{"type":"Feature","properties":{"type":"port","area":"egy-northainsukhnaport","name":"NORTH AIN SUKHNA PORT"},"geometry":{"type":"Point","coordinates":[32.35860262929908,29.644264973119636]}},
{"type":"Feature","properties":{"type":"port","area":"srb-staribanovci","name":"STARI BANOVCI"},"geometry":{"type":"Point","coordinates":[20.29740138821813,44.98751660952163]}},
{"type":"Feature","properties":{"type":"port","area":"arg-rosario","name":"ROSARIO"},"geometry":{"type":"Point","coordinates":[-59.74702449147939,-33.5189240535249]}},
{"type":"Feature","properties":{"type":"port","area":"civ-baobabmarineterminal","name":"BAOBAB MARINE TERMINAL"},"geometry":{"type":"Point","coordinates":[-4.541947076128612,4.970907273468296]}},
{"type":"Feature","properties":{"type":"port","area":"prk-wonsan","name":"WONSAN"},"geometry":{"type":"Point","coordinates":[127.46540946155176,39.15848108493566]}},
{"type":"Feature","properties":{"type":"port","area":"vnm-catba","name":"CAT BA"},"geometry":{"type":"Point","coordinates":[107.04609269620411,20.720019996950533]}},
{"type":"Feature","properties":{"type":"port","area":"twn-keelungcity","name":"KEELUNG CITY"},"geometry":{"type":"Point","coordinates":[121.8406,25.26564]}},
{"type":"Feature","properties":{"type":"port","area":"ven-puntacardon","name":"PUNTA CARDON"},"geometry":{"type":"Point","coordinates":[-70.26479414127593,11.654106451802805]}},
{"type":"Feature","properties":{"type":"port","area":"bgr-novoselo","name":"NOVO SELO"},"geometry":{"type":"Point","coordinates":[22.81487405812736,44.15704119097026]}},
{"type":"Feature","properties":{"type":"port","area":"irl-greenore","name":"GREENORE"},"geometry":{"type":"Point","coordinates":[-6.113322497980347,54.028183251992736]}},
{"type":"Feature","properties":{"type":"port","area":"dza-bejaia","name":"BEJAIA"},"geometry":{"type":"Point","coordinates":[5.124620639335471,36.74366656663486]}},
{"type":"Feature","properties":{"type":"port","area":"irn-bandar-eparsterminal","name":"BANDAR-E PARS TERMINAL"},"geometry":{"type":"Point","coordinates":[52.544173015100796,27.523892631545554]}},
{"type":"Feature","properties":{"type":"port","area":"per-eten","name":"ETEN"},"geometry":{"type":"Point","coordinates":[-79.86234395554199,-6.965331593454255]}},
{"type":"Feature","properties":{"type":"port","area":"sle-sherbroriver","name":"SHERBRO RIVER"},"geometry":{"type":"Point","coordinates":[-12.760212600557493,7.714392251582822]}},
{"type":"Feature","properties":{"type":"port","area":"rou-galdau","name":"GALDAU"},"geometry":{"type":"Point","coordinates":[27.699325857250173,44.31609964572905]}},
{"type":"Feature","properties":{"type":"port","area":"twn-tainancity","name":"TAINAN CITY"},"geometry":{"type":"Point","coordinates":[120.0835154682874,23.209149958733192]}},
{"type":"Feature","properties":{"type":"port","area":"gab-libreville","name":"LIBREVILLE"},"geometry":{"type":"Point","coordinates":[9.43101129287355,0.3441232079861629]}},
{"type":"Feature","properties":{"type":"port","area":"hun-budapestii.kerulet","name":"BUDAPEST II. KERULET"},"geometry":{"type":"Point","coordinates":[19.04857108557258,47.517936669770286]}},
{"type":"Feature","properties":{"type":"port","area":"pol-jastarnia","name":"JASTARNIA"},"geometry":{"type":"Point","coordinates":[18.67562511698655,54.69337649500757]}},
{"type":"Feature","properties":{"type":"port","area":"png-wewakharbor","name":"WEWAK HARBOR"},"geometry":{"type":"Point","coordinates":[143.6521384496793,-3.548625352411039]}},
{"type":"Feature","properties":{"type":"port","area":"tha-phrasamutchedi","name":"PHRA SAMUT CHEDI"},"geometry":{"type":"Point","coordinates":[100.57382372843946,13.585554626353868]}},
{"type":"Feature","properties":{"type":"port","area":"chl-mejillones","name":"MEJILLONES"},"geometry":{"type":"Point","coordinates":[-70.43168914979617,-23.073407114342466]}},
{"type":"Feature","properties":{"type":"port","area":"irn-koohmobarak","name":"KOOH MOBARAK"},"geometry":{"type":"Point","coordinates":[57.28035385615075,25.818810227162988]}},
{"type":"Feature","properties":{"type":"port","area":"gin-taressaanchorage","name":"TARESSA ANCHORAGE"},"geometry":{"type":"Point","coordinates":[-14.594303637883609,10.733139638978667]}},
{"type":"Feature","properties":{"type":"port","area":"mar-eljorflasfar","name":"EL JORF LASFAR"},"geometry":{"type":"Point","coordinates":[-8.629693659084268,33.12808914163741]}},
{"type":"Feature","properties":{"type":"port","area":"prt-estoril","name":"ESTORIL"},"geometry":{"type":"Point","coordinates":[-9.404171994676977,38.698911875561215]}},
{"type":"Feature","properties":{"type":"port","area":"ven-maracaibo","name":"MARACAIBO"},"geometry":{"type":"Point","coordinates":[-71.62275433017854,10.553564599941279]}},
{"type":"Feature","properties":{"type":"port","area":"isl-keflavik","name":"KEFLAVIK"},"geometry":{"type":"Point","coordinates":[-22.5519500929997,64.01589888997412]}},
{"type":"Feature","properties":{"type":"port","area":"rou-giurgiu","name":"GIURGIU"},"geometry":{"type":"Point","coordinates":[24.67954781980155,43.8586326361727]}},
{"type":"Feature","properties":{"type":"port","area":"col-cartagena","name":"CARTAGENA"},"geometry":{"type":"Point","coordinates":[-75.5596692714807,10.31344039025298]}},
{"type":"Feature","properties":{"type":"port","area":"chl-quellon","name":"QUELLON"},"geometry":{"type":"Point","coordinates":[-73.67611199387383,-43.51412629110092]}},
{"type":"Feature","properties":{"type":"port","area":"tto-scarborough","name":"SCARBOROUGH"},"geometry":{"type":"Point","coordinates":[-60.736119134908506,11.179458857632465]}},
{"type":"Feature","properties":{"type":"port","area":"pri-boqueron","name":"BOQUERON"},"geometry":{"type":"Point","coordinates":[-67.17818776244268,18.0219940281828]}},
{"type":"Feature","properties":{"type":"port","area":"vct-kingstown","name":"KINGSTOWN"},"geometry":{"type":"Point","coordinates":[-61.22891037362837,13.15031565219087]}},
{"type":"Feature","properties":{"type":"port","area":"aut-melk","name":"MELK"},"geometry":{"type":"Point","coordinates":[15.32985416429043,48.23301411945289]}},
{"type":"Feature","properties":{"type":"port","area":"are-yasmarina","name":"YAS MARINA"},"geometry":{"type":"Point","coordinates":[54.607310208838754,24.465498175171653]}},
{"type":"Feature","properties":{"type":"port","area":"syr-alladhiqiyah","name":"AL LADHIQIYAH"},"geometry":{"type":"Point","coordinates":[35.748919697557234,35.52686248928557]}},
{"type":"Feature","properties":{"type":"port","area":"chl-chl-4","name":"CHL-4"},"geometry":{"type":"Point","coordinates":[-68.49052111630358,-54.929736436033245]}},
{"type":"Feature","properties":{"type":"port","area":"hkg-wanchai","name":"WAN CHAI"},"geometry":{"type":"Point","coordinates":[114.16974433496169,22.29097647875578]}},
{"type":"Feature","properties":{"type":"port","area":"ncl-baieugue","name":"BAIE UGUE"},"geometry":{"type":"Point","coordinates":[165.55653049020322,-21.14599317730344]}},
{"type":"Feature","properties":{"type":"port","area":"isl-bildudalur","name":"BILDUDALUR"},"geometry":{"type":"Point","coordinates":[-23.599299413617597,65.68464815586029]}},
{"type":"Feature","properties":{"type":"port","area":"cri-moin","name":"MOIN"},"geometry":{"type":"Point","coordinates":[-83.0712577677459,10.03968177651899]}},
{"type":"Feature","properties":{"type":"port","area":"cri-limon","name":"LIMON"},"geometry":{"type":"Point","coordinates":[-82.9914760841009,9.974825656250514]}},
{"type":"Feature","properties":{"type":"port","area":"arg-santafe","name":"SANTA FE"},"geometry":{"type":"Point","coordinates":[-60.705021193692794,-31.65882514261739]}},
{"type":"Feature","properties":{"type":"port","area":"per-casma","name":"CASMA"},"geometry":{"type":"Point","coordinates":[-78.3861388889,-9.45580555556]}},
{"type":"Feature","properties":{"type":"port","area":"bhs-adelaide","name":"ADELAIDE"},"geometry":{"type":"Point","coordinates":[-77.53461285170324,24.993691948829706]}},
{"type":"Feature","properties":{"type":"port","area":"mlt-mgarr","name":"MGARR"},"geometry":{"type":"Point","coordinates":[14.30060424352194,36.02551707753105]}},
{"type":"Feature","properties":{"type":"port","area":"mne-budva","name":"BUDVA"},"geometry":{"type":"Point","coordinates":[18.8667292488755,42.267721183971744]}},
{"type":"Feature","properties":{"type":"port","area":"ecu-puertoayora","name":"PUERTO AYORA"},"geometry":{"type":"Point","coordinates":[-90.3029982155114,-0.7519014414708632]}},
{"type":"Feature","properties":{"type":"port","area":"aze-aze-30","name":"AZE-30"},"geometry":{"type":"Point","coordinates":[50.61715727192833,40.319539448940986]}},
{"type":"Feature","properties":{"type":"port","area":"sjm-bjornoya","name":"BJORNOYA"},"geometry":{"type":"Point","coordinates":[19.099692345026767,74.41307693615576]}},
{"type":"Feature","properties":{"type":"port","area":"vct-barrouallie","name":"BARROUALLIE"},"geometry":{"type":"Point","coordinates":[-61.276770620696276,13.245834530395209]}},
{"type":"Feature","properties":{"type":"port","area":"are-fatehfield","name":"FATEH FIELD"},"geometry":{"type":"Point","coordinates":[54.385882798231,25.551349373331206]}},
{"type":"Feature","properties":{"type":"port","area":"zaf-eastlondon","name":"EAST LONDON"},"geometry":{"type":"Point","coordinates":[27.912672652224064,-33.028638337110195]}},
{"type":"Feature","properties":{"type":"port","area":"jam-discoverybay","name":"DISCOVERY BAY"},"geometry":{"type":"Point","coordinates":[-77.40720908092679,18.46240264287569]}},
{"type":"Feature","properties":{"type":"port","area":"est-sillamae","name":"SILLAMAE"},"geometry":{"type":"Point","coordinates":[27.713319013403378,59.457899295360804]}},
{"type":"Feature","properties":{"type":"port","area":"pri-centralaguirre","name":"CENTRAL AGUIRRE"},"geometry":{"type":"Point","coordinates":[-66.23985689057835,17.931645616397972]}},
{"type":"Feature","properties":{"type":"port","area":"bes-sinteustatius","name":"SINT EUSTATIUS"},"geometry":{"type":"Point","coordinates":[-63.02311458936954,17.49650918634477]}},
{"type":"Feature","properties":{"type":"port","area":"slb-honiara","name":"HONIARA"},"geometry":{"type":"Point","coordinates":[160.14152592642068,-10.544512248669559]}},
{"type":"Feature","properties":{"type":"port","area":"vnm-danang","name":"DA NANG"},"geometry":{"type":"Point","coordinates":[108.23687505087537,16.11152620460868]}},
{"type":"Feature","properties":{"type":"port","area":"lby-banghazi","name":"BANGHAZI"},"geometry":{"type":"Point","coordinates":[20.014324132480763,32.1193719506028]}},
{"type":"Feature","properties":{"type":"port","area":"grd-saintgeorge's","name":"SAINT GEORGE'S"},"geometry":{"type":"Point","coordinates":[-61.76367571839292,12.085848995382296]}},
{"type":"Feature","properties":{"type":"port","area":"cub-nuevitasanchorage","name":"NUEVITAS ANCHORAGE"},"geometry":{"type":"Point","coordinates":[-77.1813972626777,21.521337810893005]}},
{"type":"Feature","properties":{"type":"port","area":"tls-dili","name":"DILI"},"geometry":{"type":"Point","coordinates":[125.62737353596054,-8.534388942246737]}},
{"type":"Feature","properties":{"type":"port","area":"cub-matanzas","name":"MATANZAS"},"geometry":{"type":"Point","coordinates":[-81.5403253480217,23.062485951429696]}},
{"type":"Feature","properties":{"type":"port","area":"srb-smederevo","name":"SMEDEREVO"},"geometry":{"type":"Point","coordinates":[19.932351432332617,45.22664968083198]}},
{"type":"Feature","properties":{"type":"port","area":"are-are-97","name":"ARE-97"},"geometry":{"type":"Point","coordinates":[53.13530420803628,24.55384963144119]}},
{"type":"Feature","properties":{"type":"port","area":"dza-mostaganem","name":"MOSTAGANEM"},"geometry":{"type":"Point","coordinates":[0.060883568231096696,35.96596361097311]}},
{"type":"Feature","properties":{"type":"port","area":"egy-safaga","name":"SAFAGA"},"geometry":{"type":"Point","coordinates":[33.970115704793145,26.688826034814966]}},
{"type":"Feature","properties":{"type":"port","area":"hkg-tungchung","name":"TUNG CHUNG"},"geometry":{"type":"Point","coordinates":[113.92186402651838,22.292795749338932]}},
{"type":"Feature","properties":{"type":"port","area":"aut-hofamtpriel","name":"HOFAMT PRIEL"},"geometry":{"type":"Point","coordinates":[15.051610572463092,48.19542608026382]}},
{"type":"Feature","properties":{"type":"port","area":"jor-alaqabah","name":"AL AQABAH"},"geometry":{"type":"Point","coordinates":[34.99283858432998,29.514917735072196]}},
{"type":"Feature","properties":{"type":"port","area":"cog-n'kossaterminal","name":"N'KOSSA TERMINAL"},"geometry":{"type":"Point","coordinates":[11.566903514129253,-5.260233959847136]}},
{"type":"Feature","properties":{"type":"port","area":"pry-asuncion","name":"ASUNCION"},"geometry":{"type":"Point","coordinates":[-57.89774870615341,-25.76912141811915]}},
{"type":"Feature","properties":{"type":"port","area":"bgr-lom","name":"LOM"},"geometry":{"type":"Point","coordinates":[23.236914257924322,43.837718358433264]}},
{"type":"Feature","properties":{"type":"port","area":"slb-ringgicove","name":"RINGGI COVE"},"geometry":{"type":"Point","coordinates":[157.1080703571233,-8.1225073341304]}},
{"type":"Feature","properties":{"type":"port","area":"mdv-male","name":"MALE"},"geometry":{"type":"Point","coordinates":[73.48751494400047,4.228945370603519]}},
{"type":"Feature","properties":{"type":"port","area":"col-col-40","name":"COL-40"},"geometry":{"type":"Point","coordinates":[-73.90242600211079,7.110538484797101]}},
{"type":"Feature","properties":{"type":"port","area":"vnm-phumy","name":"PHU MY"},"geometry":{"type":"Point","coordinates":[107.01407001691788,10.543754386342274]}},
{"type":"Feature","properties":{"type":"port","area":"pri-puertoreal","name":"PUERTO REAL"},"geometry":{"type":"Point","coordinates":[-67.19028091564115,18.073405621168984]}},
{"type":"Feature","properties":{"type":"port","area":"twn-mailiao","name":"MAILIAO"},"geometry":{"type":"Point","coordinates":[120.13611451128949,23.77630333161639]}},
{"type":"Feature","properties":{"type":"port","area":"are-rashidfield","name":"RASHID FIELD"},"geometry":{"type":"Point","coordinates":[54.456724754842504,25.372379141646114]}},
{"type":"Feature","properties":{"type":"port","area":"ken-mombasa","name":"MOMBASA"},"geometry":{"type":"Point","coordinates":[39.640671180893705,-4.063603661444908]}},
{"type":"Feature","properties":{"type":"port","area":"pry-pry-24","name":"PRY-24"},"geometry":{"type":"Point","coordinates":[-57.22210808014457,-24.10384752371763]}},
{"type":"Feature","properties":{"type":"port","area":"est-kuressaare","name":"KURESSAARE"},"geometry":{"type":"Point","coordinates":[22.504697861931948,58.21593467933711]}},
{"type":"Feature","properties":{"type":"port","area":"mdg-mahajanga","name":"MAHAJANGA"},"geometry":{"type":"Point","coordinates":[46.300890798913805,-15.731132974978033]}},
{"type":"Feature","properties":{"type":"port","area":"aut-feldkirchenanderdonau","name":"FELDKIRCHEN AN DER DONAU"},"geometry":{"type":"Point","coordinates":[14.022176628841079,48.35601125018357]}},
{"type":"Feature","properties":{"type":"port","area":"jam-portantonio","name":"PORT ANTONIO"},"geometry":{"type":"Point","coordinates":[-76.4485532932113,18.180677485990756]}},
{"type":"Feature","properties":{"type":"port","area":"fji-savusavubay","name":"SAVUSAVU BAY"},"geometry":{"type":"Point","coordinates":[179.32639690342845,-16.777560131177008]}},
{"type":"Feature","properties":{"type":"port","area":"chl-sanjose","name":"SAN JOSE"},"geometry":{"type":"Point","coordinates":[-73.20107873855477,-41.79847172669542]}},
{"type":"Feature","properties":{"type":"port","area":"prt-albufeira","name":"ALBUFEIRA"},"geometry":{"type":"Point","coordinates":[-8.262557790992519,37.08286678123334]}},
{"type":"Feature","properties":{"type":"port","area":"prt-ferragudo","name":"FERRAGUDO"},"geometry":{"type":"Point","coordinates":[-8.5236891355124,37.112797401883796]}},
{"type":"Feature","properties":{"type":"port","area":"omn-duqm","name":"DUQM"},"geometry":{"type":"Point","coordinates":[57.71957149675959,19.668596155713825]}},
{"type":"Feature","properties":{"type":"port","area":"png-bialla","name":"BIALLA"},"geometry":{"type":"Point","coordinates":[151.00014890482188,-5.305597783402868]}},
{"type":"Feature","properties":{"type":"port","area":"brn-championfield","name":"CHAMPION FIELD"},"geometry":{"type":"Point","coordinates":[114.75000627061141,5.196783927598673]}},
{"type":"Feature","properties":{"type":"port","area":"prk-nampo","name":"NAMPO"},"geometry":{"type":"Point","coordinates":[125.29671281897177,38.700418548701236]}},
{"type":"Feature","properties":{"type":"port","area":"rou-pristol","name":"PRISTOL"},"geometry":{"type":"Point","coordinates":[22.726534521138277,44.20499303264437]}},
{"type":"Feature","properties":{"type":"port","area":"pyf-anau","name":"ANAU"},"geometry":{"type":"Point","coordinates":[-151.7065451803787,-16.532373636134018]}},
{"type":"Feature","properties":{"type":"port","area":"aze-aze-7","name":"AZE-7"},"geometry":{"type":"Point","coordinates":[50.386385428178095,39.92197094223111]}},
{"type":"Feature","properties":{"type":"port","area":"ecu-ecu-27","name":"ECU-27"},"geometry":{"type":"Point","coordinates":[-90.28257833968549,-0.48782980708467394]}},
{"type":"Feature","properties":{"type":"port","area":"lva-daugavgriva","name":"DAUGAVGRIVA"},"geometry":{"type":"Point","coordinates":[24.02619065169307,57.053316973602804]}},
{"type":"Feature","properties":{"type":"port","area":"mar-rabat","name":"RABAT"},"geometry":{"type":"Point","coordinates":[-6.821902130233637,34.029399202428905]}},
{"type":"Feature","properties":{"type":"port","area":"hti-gonayiv","name":"GONAYIV"},"geometry":{"type":"Point","coordinates":[-72.71451624842622,19.449180137350808]}},
{"type":"Feature","properties":{"type":"port","area":"aut-waldkirchenamwesen","name":"WALDKIRCHEN AM WESEN"},"geometry":{"type":"Point","coordinates":[13.810414681314091,48.45962185627661]}},
{"type":"Feature","properties":{"type":"port","area":"are-alrafiq","name":"AL RAFIQ"},"geometry":{"type":"Point","coordinates":[54.000252975666555,24.189197788870636]}},
{"type":"Feature","properties":{"type":"port","area":"isr-qiryatyam","name":"QIRYAT YAM"},"geometry":{"type":"Point","coordinates":[35.02905518429701,32.85065232410236]}},
{"type":"Feature","properties":{"type":"port","area":"fji-robinsoncrusoeisland","name":"ROBINSON CRUSOE ISLAND"},"geometry":{"type":"Point","coordinates":[177.28561144749148,-18.0520129588438]}},
{"type":"Feature","properties":{"type":"port","area":"per-paita","name":"PAITA"},"geometry":{"type":"Point","coordinates":[-81.10589613220972,-5.056926357968505]}},
{"type":"Feature","properties":{"type":"port","area":"isl-bolungavik","name":"BOLUNGAVIK"},"geometry":{"type":"Point","coordinates":[-23.24549933968513,66.15667550349976]}},
{"type":"Feature","properties":{"type":"port","area":"are-almarmarisland","name":"AL MARMAR ISLAND"},"geometry":{"type":"Point","coordinates":[52.78369487542919,24.164995798871605]}},
{"type":"Feature","properties":{"type":"port","area":"col-col-45","name":"COL-45"},"geometry":{"type":"Point","coordinates":[-73.88554189193731,7.069613714539305]}},
{"type":"Feature","properties":{"type":"port","area":"cod-cod-6","name":"COD-6"},"geometry":{"type":"Point","coordinates":[11.262460796981454,-6.209341033803776]}},
{"type":"Feature","properties":{"type":"port","area":"chl-chl-1","name":"CHL-1"},"geometry":{"type":"Point","coordinates":[-73.48847785674434,-42.89395334909897]}},
{"type":"Feature","properties":{"type":"port","area":"are-are-146","name":"ARE-146"},"geometry":{"type":"Point","coordinates":[55.81637994751876,26.03299359292038]}},
{"type":"Feature","properties":{"type":"port","area":"rou-poartaalba","name":"POARTA ALBA"},"geometry":{"type":"Point","coordinates":[28.37788489970958,44.22352482507012]}},
{"type":"Feature","properties":{"type":"port","area":"bhs-governor'sharbour","name":"GOVERNOR'S HARBOUR"},"geometry":{"type":"Point","coordinates":[-76.24920528026858,25.195527659493095]}},
{"type":"Feature","properties":{"type":"port","area":"aze-aze-23","name":"AZE-23"},"geometry":{"type":"Point","coordinates":[49.797478321586304,39.86197636267052]}},
{"type":"Feature","properties":{"type":"port","area":"ven-laspiedras","name":"LAS PIEDRAS"},"geometry":{"type":"Point","coordinates":[-70.22458932946665,11.69307681354092]}},
{"type":"Feature","properties":{"type":"port","area":"egy-idku","name":"IDKU"},"geometry":{"type":"Point","coordinates":[30.29551393372833,31.36277923849685]}},
{"type":"Feature","properties":{"type":"port","area":"hnd-frenchharbor","name":"FRENCH HARBOR"},"geometry":{"type":"Point","coordinates":[-86.47197967339994,16.33997788365352]}},
{"type":"Feature","properties":{"type":"port","area":"irn-fereydunkenar","name":"FEREYDUNKENAR"},"geometry":{"type":"Point","coordinates":[52.55718956675564,36.69709563160249]}},
{"type":"Feature","properties":{"type":"port","area":"bhs-bhs-60","name":"BHS-60"},"geometry":{"type":"Point","coordinates":[-77.19501010204809,25.102408363432126]}},
{"type":"Feature","properties":{"type":"port","area":"tha-maptaphut","name":"MAP TA PHUT"},"geometry":{"type":"Point","coordinates":[101.11628649610323,12.644756679642022]}},
{"type":"Feature","properties":{"type":"port","area":"per-paramonga","name":"PARAMONGA"},"geometry":{"type":"Point","coordinates":[-77.8439564694293,-10.685149979997805]}},
{"type":"Feature","properties":{"type":"port","area":"ven-elpalito","name":"EL PALITO"},"geometry":{"type":"Point","coordinates":[-68.12835369930394,10.515572491390234]}},
{"type":"Feature","properties":{"type":"port","area":"ecu-ecu-26","name":"ECU-26"},"geometry":{"type":"Point","coordinates":[-90.03791193984354,-0.8031115987568448]}},
{"type":"Feature","properties":{"type":"port","area":"aut-vienna","name":"VIENNA"},"geometry":{"type":"Point","coordinates":[16.43601659135881,48.203208683127514]}},
{"type":"Feature","properties":{"type":"port","area":"are-khalifa","name":"KHALIFA"},"geometry":{"type":"Point","coordinates":[54.6586183236126,24.841050904760294]}},
{"type":"Feature","properties":{"type":"port","area":"prt-prt-44","name":"PRT-44"},"geometry":{"type":"Point","coordinates":[-25.429430533159206,37.71402639764333]}},
{"type":"Feature","properties":{"type":"port","area":"bhs-cliftonbay","name":"CLIFTON BAY"},"geometry":{"type":"Point","coordinates":[-77.55149687150708,25.025264529813033]}},
{"type":"Feature","properties":{"type":"port","area":"irl-dundalk","name":"DUNDALK"},"geometry":{"type":"Point","coordinates":[-6.384913040932583,54.00791061696208]}},
{"type":"Feature","properties":{"type":"port","area":"arg-arroyoseco","name":"ARROYO SECO"},"geometry":{"type":"Point","coordinates":[-60.49187743870493,-33.11968973629625]}},
{"type":"Feature","properties":{"type":"port","area":"are-dalmaisland","name":"DALMA ISLAND"},"geometry":{"type":"Point","coordinates":[52.33326495813699,24.492164046729386]}},
{"type":"Feature","properties":{"type":"port","area":"bhs-bakersbay","name":"BAKERS BAY"},"geometry":{"type":"Point","coordinates":[-77.16106643028695,26.685919777572945]}},
{"type":"Feature","properties":{"type":"port","area":"mus-portlouis","name":"PORT LOUIS"},"geometry":{"type":"Point","coordinates":[57.461104722635284,-20.133714762198693]}},
{"type":"Feature","properties":{"type":"port","area":"bgr-ruse","name":"RUSE"},"geometry":{"type":"Point","coordinates":[25.95507913916381,43.860355482994635]}},
{"type":"Feature","properties":{"type":"port","area":"hkg-central","name":"CENTRAL"},"geometry":{"type":"Point","coordinates":[114.16581145045787,22.299109559373267]}},
{"type":"Feature","properties":{"type":"port","area":"fji-aven","name":"AVEN"},"geometry":{"type":"Point","coordinates":[178.51944600401282,-18.7574715124396]}},
{"type":"Feature","properties":{"type":"port","area":"are-jumeirah","name":"JUMEIRAH"},"geometry":{"type":"Point","coordinates":[55.22929503871184,25.20548254551301]}},
{"type":"Feature","properties":{"type":"port","area":"sur-nieuwnickerie","name":"NIEUW NICKERIE"},"geometry":{"type":"Point","coordinates":[-56.99539259709055,5.9487955330664715]}},
{"type":"Feature","properties":{"type":"port","area":"lbn-jounieh","name":"JOUNIEH"},"geometry":{"type":"Point","coordinates":[35.60966404976696,33.98385102763894]}},
{"type":"Feature","properties":{"type":"port","area":"pan-sambabonita","name":"SAMBA BONITA"},"geometry":{"type":"Point","coordinates":[-79.82255677607591,9.391130188328434]}},
{"type":"Feature","properties":{"type":"port","area":"bhs-guncay","name":"GUN CAY"},"geometry":{"type":"Point","coordinates":[-79.30326419866647,25.584404124300256]}},
{"type":"Feature","properties":{"type":"port","area":"ven-lagunillas","name":"LAGUNILLAS"},"geometry":{"type":"Point","coordinates":[-71.267357723674,10.131610323245074]}},
{"type":"Feature","properties":{"type":"port","area":"mdg-andoany","name":"ANDOANY"},"geometry":{"type":"Point","coordinates":[48.28357523408403,-13.411619691323653]}},
{"type":"Feature","properties":{"type":"port","area":"irl-dingle","name":"DINGLE"},"geometry":{"type":"Point","coordinates":[-10.269342814017422,52.12717606994761]}},
{"type":"Feature","properties":{"type":"port","area":"ven-bachaquero","name":"BACHAQUERO"},"geometry":{"type":"Point","coordinates":[-71.47222779366224,10.061227879534146]}},
{"type":"Feature","properties":{"type":"port","area":"lby-misratah","name":"MISRATAH"},"geometry":{"type":"Point","coordinates":[15.266768142476348,32.381128274292735]}},
{"type":"Feature","properties":{"type":"port","area":"aze-absheronanchorage","name":"ABSHERON ANCHORAGE"},"geometry":{"type":"Point","coordinates":[50.249670313625046,40.52013805130148]}},
{"type":"Feature","properties":{"type":"port","area":"fji-fji-11","name":"FJI-11"},"geometry":{"type":"Point","coordinates":[177.14224655849526,-17.739780764331996]}},
{"type":"Feature","properties":{"type":"port","area":"srb-srb-7","name":"SRB-7"},"geometry":{"type":"Point","coordinates":[22.487136090738392,44.69671190088411]}},
{"type":"Feature","properties":{"type":"port","area":"kir-london","name":"LONDON"},"geometry":{"type":"Point","coordinates":[-157.48943304951362,1.986506727011208]}},
{"type":"Feature","properties":{"type":"port","area":"vnm-vungtau","name":"VUNG TAU"},"geometry":{"type":"Point","coordinates":[107.05694757839473,10.4607771548174]}},
{"type":"Feature","properties":{"type":"port","area":"twn-hua-lienkang","name":"HUA-LIEN KANG"},"geometry":{"type":"Point","coordinates":[121.62066077076098,23.965840022080545]}},
{"type":"Feature","properties":{"type":"port","area":"rou-harsova","name":"HARSOVA"},"geometry":{"type":"Point","coordinates":[27.946166811144952,44.67785410423692]}},
{"type":"Feature","properties":{"type":"port","area":"per-malabrigo","name":"MALABRIGO"},"geometry":{"type":"Point","coordinates":[-79.4359166667,-7.69536111111]}},
{"type":"Feature","properties":{"type":"port","area":"lva-riga","name":"RIGA"},"geometry":{"type":"Point","coordinates":[23.995233626315077,57.066037966329525]}},
{"type":"Feature","properties":{"type":"port","area":"ala-kumlinge","name":"KUMLINGE"},